"MapoticID";"Longitude";"Latitude";"Name";"Category";"Rating";"Image URL";"Import ID";"Description";"Address";"Web";"E-mail";"Phone number";"Description";"Refreshment";"Diving";"Entrance";"Accessibility/parking";"Link";"Nudist beach";"Video";"Dog swimming"
"202693";"14.5424003601";"50.2645988464";"Mlékojedy (Free D Bar)";"Sand quarry";"3.4782608695652173";"https://media.mapotic.com/cdn-cgi/image/metadata=none,width=900,height=900/media/image/geo/2941/202693/img_5615_QC7E3tL.jpg";"swimplaces:1";"";"";"";"";"";"Pískovna v Mlékojedech u Neratovic. V létě posezení u muziky na pískovém podloží, možnost občerstvení. ";"Restaurant on site";"Suitable for diving";"No entrance fee";"Very close";"http://www.free-d-bar.cz/index.php?content=mapa ";"Not suitable for nudists";"";""
"202694";"14.668717";"50.2448";"Jezero Lhota";"Sand quarry";"4.404255319148937";"https://media.mapotic.com/cdn-cgi/image/metadata=none,width=900,height=900/media/image/geo/2941/202694/image-7a15e0d6-5e5d-412d-a344-fd73f24371c7_2048x1536.jpg";"swimplaces:2";"";"";"";"";"";"Stará zaplavená pískovna, v letních měsících z části placené koupaliště. Hodně lidí. Teplá a čistá voda. Písečné pláže. Jsou tu i nudistické pláže(první nudistická pláž v Československu). Jsou tu toalety i občerstvení.";"Restaurant on site";"Not suitable for diving";"Entrance fee";"Very close";"http://stranypotapecske.cz/lokality/lokaldet.asp?Nazev=Lhota+%28u+M%ECln%EDka%29+%2D+jezero+Lhota";"Suitable for nudists";"";""
"202695";"14.659067";"50.2693";"Pískovna Konětopy ";"Sand quarry";"4.333333333333333";"https://media.mapotic.com/cdn-cgi/image/metadata=none,width=900,height=900/media/image/geo/2941/202695/517cbf24-d890-4044-bab2-4f077d0894e6.jpg";"swimplaces:3";"";"";"";"";"";"Zaplavená pískovna, čistá voda, na březích rákosí. ";"No restaurant";"Not suitable for diving";"No entrance fee";"";"";"Not suitable for nudists";"";""
"202696";"14.616733";"50.247883";"Jezero Ovčáry";"Lake (pond)";"3.7272727272727275";"https://media.mapotic.com/cdn-cgi/image/metadata=none,width=900,height=900/media/image/geo/2941/202696/cbf4cbe5-d07d-42e9-994a-e35dd2b1f729_bqHa7wV.jpg";"swimplaces:4";"Volně pčístupná pískovna s vodním lyžováním. Placené parkoviště, restaurace a kamp u parkoviště, stánek u pláže";"";"";"";"";"";"Restaurant on site";"Not suitable for diving";"No entrance fee";"100 m";"";"Not suitable for nudists";"";""
"202697";"14.05175";"49.938083";"Beroun - Lom Kosov";"Quarry";"4.130434782608695";"https://media.mapotic.com/cdn-cgi/image/metadata=none,width=900,height=900/media/image/geo/2941/202697/img_9155_GDmBlbw.jpg";"swimplaces:5";"";"";"";"";"";"Zaplavený lom, parádně čistá voda ";"No restaurant";"Not suitable for diving";"No entrance fee";"Very close";"";"Not suitable for nudists";"";""
"202698";"15.949956";"49.828561";"Lomy u Prosetína ";"Quarry";"";"https://media.mapotic.com/cdn-cgi/image/metadata=none,width=900,height=900/media/image/geo/2941/202698/396a01f0-f5d2-4d56-bd05-1ebc4dad4eab.jpg";"swimplaces:6";"";"";"";"";"";"Několik nádherných lomů nedaleko od Skutče. ";"No restaurant";"Not suitable for diving";"No entrance fee";"";"http://jezewcik.sweb.cz/cestovani/prosetin/prosetin.htm";"Not suitable for nudists";"";""
"202699";"14.656577";"50.202067";"Proboštská jezera ";"Lake (pond)";"3.5625";"https://media.mapotic.com/cdn-cgi/image/metadata=none,width=900,height=900/media/image/geo/2941/202699/image-60649d2e-397a-4727-9e89-e5052f62b89a_OzSJ8Vz.jpg";"swimplaces:7";"";"";"";"";"";"Koupání kousek od Prahy s možností parkování blízko vody. Pláže jsou většinou písčité nebo štěrko-písčité.
 Vstup do Vody je mírný. Jedna pláž je se vstupným a občerstvením. Je tu i malý kemp.";"Restaurant on site";"Not suitable for diving";"Entrance fee";"Very close";"";"Not suitable for nudists";"";""
"202700";"16.90226";"49.251086";"NEPUBLIKOVAT! Lom upravený na koupaliště ";"Quarry";"";"https://media.mapotic.com/cdn-cgi/image/metadata=none,width=900,height=900/media/image/geo/2941/202700/94ff4b6a-e544-47b0-b374-6a9875ff5990.jpg";"swimplaces:8";"";"";"";"";"";"Lom předělaný ve třicátých letech na koupaliště.";"No restaurant";"Not suitable for diving";"No entrance fee";"";"";"Not suitable for nudists";"";""
"202701";"15.642081";"50.382737";"Přírodní koupaliště Dachová";"Swimming pool";"4.5";"https://media.mapotic.com/cdn-cgi/image/metadata=none,width=900,height=900/media/image/geo/2941/202701/img_8206_tvI5lgR.jpg";"swimplaces:9";"";"";"";"";"";"Malebné koupaliště z třicátých let, platí se vstupné, na noc se zavírá. ";"Restaurant on site";"Not suitable for diving";"Entrance fee";"Very close";"";"Not suitable for nudists";"";""
"202702";"15.409698";"49.630158";"Lomy Lipnice ";"Quarry";"4.25";"https://media.mapotic.com/cdn-cgi/image/metadata=none,width=900,height=900/media/image/geo/2941/202702/77a904cb-bae7-4bcf-bd60-8e1a010f8e07.jpg";"swimplaces:10";"";"";"";"";"";"Zaplavené lesní lomy u Lipnice nad Sázavou, mnoho lomů, nádherně čistá voda. ";"No restaurant";"Suitable for diving";"No entrance fee";"Very close";"";"Not suitable for nudists";"";""
"202703";"15.8812955";"49.7776505";"Lom Srní";"Quarry";"4.125";"https://media.mapotic.com/cdn-cgi/image/metadata=none,width=900,height=900/media/image/geo/2941/202703/30d8320b-f0f5-4e6c-b9d5-403e8808fd07.jpg";"swimplaces:11";"";"";"";"";"";"Pěkný lom poblíž Hlinska";"No restaurant";"Not suitable for diving";"No entrance fee";"";"";"Not suitable for nudists";"";""
"202704";"15.6093838";"50.0454992";"Mělické písáky";"Sand quarry";"4.846153846153846";"https://media.mapotic.com/cdn-cgi/image/metadata=none,width=900,height=900/media/image/geo/2941/202704/c17d3812-8ea9-4bb2-8911-ceb17b0d4015.jpg";"swimplaces:15";"";"";"";"";"";"Parádní koupání, ihned u silnice, super voda,  stánky s občerstvením. Vstup do vody je pozvolný a pláže jsou písčité. Na poloostrově je kemp. Vstup zdarma.";"Restaurant on site";"Not suitable for diving";"No entrance fee";"Very close";"";"Not suitable for nudists";"";""
"202705";"15.5878833";"49.79084";"Lom u obce Borek";"Quarry";"";"https://media.mapotic.com/cdn-cgi/image/metadata=none,width=900,height=900/media/image/geo/2941/202705/58b535f4-54b1-42b4-919e-5e61e4219698.jpg";"swimplaces:16";"";"";"";"";"";"Super koupání v překrásnem prostředí a v průzračně čisté vodě.";"No restaurant";"Suitable for diving";"No entrance fee";"";"";"Not suitable for nudists";"";""
"202706";"15.5004218";"49.738636";"Lom u obce Habry";"Quarry";"1.0";"https://media.mapotic.com/cdn-cgi/image/metadata=none,width=900,height=900/media/image/geo/2941/202706/7f4ad6e8-9bbf-4700-9406-421c42e2aba9.jpg";"swimplaces:18";"";"";"";"";"";"Další lomové koupání starší zatopený lom už je černé dno ale i tak super  voda.";"No restaurant";"Suitable for diving";"No entrance fee";"";"";"Not suitable for nudists";"";""
"202707";"15.6352296";"49.7136714";"Požární nadrž Svinný (koupaliště)";"Swimming pool";"3.0";"https://media.mapotic.com/cdn-cgi/image/metadata=none,width=900,height=900/media/image/geo/2941/202707/e53b4c6e-9f56-4932-8c5c-8cb37c60a994.jpg";"swimplaces:19";"";"";"";"";"";"Chemicky udržovaná voda, tudíž nekvete;)";"No restaurant";"Not suitable for diving";"No entrance fee";"";"";"Not suitable for nudists";"";""
"202708";"15.6888631";"49.6552516";"Nadrž u České Bělé";"Dam";"4.0";"https://media.mapotic.com/cdn-cgi/image/metadata=none,width=900,height=900/media/image/geo/2941/202708/image-8f8bd2db-be82-4688-b24c-ffd2f06f14e7_PZRQAwL.jpg";"swimplaces:20";"";"";"";"";"";"Čistá voda bez ryb.";"No restaurant";"Not suitable for diving";"No entrance fee";"Very close";"";"Not suitable for nudists";"";""
"202709";"15.7759598";"49.6683077";"Nadrž v obci Slavětín";"Dam";"";"https://media.mapotic.com/cdn-cgi/image/metadata=none,width=900,height=900/media/image/geo/2941/202709/bfe1c662-7c1a-4788-b0ad-ab945b8d9329.jpg";"swimplaces:21";"";"";"";"";"";"";"No restaurant";"Not suitable for diving";"No entrance fee";"";"";"Not suitable for nudists";"";""
"202710";"15.6508508";"49.8375355";"Přehradní nadrž Seč";"Dam";"4.0";"https://media.mapotic.com/cdn-cgi/image/metadata=none,width=900,height=900/media/image/geo/2941/202710/0ed70901-95e5-4508-b183-6e74bbd88712.jpg";"swimplaces:22";"";"";"";"";"";"Super pokoupání s možností stanování a zapůjčení pramic a šlapadel.";"Restaurant on site";"Not suitable for diving";"No entrance fee";"";"";"Not suitable for nudists";"";""
"202711";"15.8983007";"49.6387007";"Velké Dářko";"Lake (pond)";"4.5";"https://media.mapotic.com/cdn-cgi/image/metadata=none,width=900,height=900/media/image/geo/2941/202711/image-564735c1-a5c4-4358-9cfa-ff384ac8f3a9_2048x1152.jpg";"swimplaces:23";"";"";"";"";"";"Největší rybník na Vysočině. Někdy se nazývá Moře vysočiny.Rybník byl založen v 15 století.Příjemné koupání s dobrým zázemí.";"Restaurant on site";"Not suitable for diving";"No entrance fee";"Very close";"";"Suitable for nudists";"";""
"202712";"15.7346108";"50.1089815";"Stéblová";"Sand quarry";"4.0";"https://media.mapotic.com/cdn-cgi/image/metadata=none,width=900,height=900/media/image/geo/2941/202712/d64733f9-d2cb-4ad0-b8a9-f6cff9dc9f0e.jpg";"swimplaces:24";"";"";"";"";"";"Písáky.";"No restaurant";"Not suitable for diving";"No entrance fee";"";"";"Not suitable for nudists";"";""
"202713";"14.4140842";"49.791131";"Měřín";"River (stream)";"4.6";"https://media.mapotic.com/cdn-cgi/image/metadata=none,width=900,height=900/media/image/geo/2941/202713/916a7feb-92e8-42e9-ab3f-4ac436fa00ac.jpg";"swimplaces:25";"";"";"";"";"";"Čistá teplá voda, přijatelně lidí, parkovné 100 Kč/den.";"Restaurant on site";"Not suitable for diving";"No entrance fee";"Very close";"";"Not suitable for nudists";"";""
"202715";"15.8119872";"49.8795817";"Práčov";"Dam";"2.6666666666666665";"https://media.mapotic.com/cdn-cgi/image/metadata=none,width=900,height=900/media/image/geo/2941/202715/17915b10-4c07-4b0b-8ea4-0c357638903d.jpg";"swimplaces:27";"";"";"";"";"";"Přehradní nádrž (oficiálně zde není koupání povoleno:))";"No restaurant";"Not suitable for diving";"No entrance fee";"";"";"Not suitable for nudists";"";""
"202716";"12.9803469";"49.8736633";"Konstantinovy Lázně";"Quarry";"4.555555555555555";"https://media.mapotic.com/cdn-cgi/image/metadata=none,width=900,height=900/media/image/geo/2941/202716/image-135b2888-a5d6-4264-9323-41bcd8c36054_OG1vJD5.jpg";"swimplaces:28";"";"";"";"";"";" Vstup placený - soukromý majetek, občerstvení na slušné úrovni v místě.";"No restaurant";"Suitable for diving";"No entrance fee";"Very close";"";"Not suitable for nudists";"";""
"202717";"12.7917447";"49.7507686";"Nová Hospoda";"Lake (pond)";"4.0";"https://media.mapotic.com/cdn-cgi/image/metadata=none,width=900,height=900/media/image/geo/2941/202717/image-7fe7d0c8-0974-4a9f-8d0b-81f53994c365_2048x1152.jpg";"swimplaces:30";"";"";"";"";"";"";"No restaurant";"Not suitable for diving";"No entrance fee";"";"";"Not suitable for nudists";"";""
"202718";"12.4609533";"50.0769169";"Vodní nádrž Jesenice";"Dam";"";"https://media.mapotic.com/cdn-cgi/image/metadata=none,width=900,height=900/media/image/geo/2941/202718/d4196141-ea9a-4786-8e14-8565fbd4125a.jpg";"swimplaces:31";"";"";"";"";"";"Kemp Ronak.";"Restaurant on site";"Not suitable for diving";"No entrance fee";"";"";"Not suitable for nudists";"";""
"202719";"12.6895526";"49.9418747";"Přírodní koupaliště Lido";"Swimming pool";"4.75";"https://media.mapotic.com/cdn-cgi/image/metadata=none,width=900,height=900/media/image/geo/2941/202719/image-944f856d-14e8-4469-8a47-8fc33ee390ed_2048x1536.jpg";"swimplaces:32";"";"";"";"";"";"Písečný břeh, možnost zahrát si beach volejbal. Najdete tu restauraci i kiosek. Vstupné je třicet korun, pro děti polovic.";"Restaurant on site";"Not suitable for diving";"No entrance fee";"";"";"Suitable for nudists";"";""
"202720";"12.7501276";"49.8724464";"Přírodní koupaliště Planá ";"Swimming pool";"";"https://media.mapotic.com/cdn-cgi/image/metadata=none,width=900,height=900/media/image/geo/2941/202720/d52c2c1b-0af6-4bd0-9e8b-0dfd3cf230f7.jpg";"swimplaces:33";"";"";"";"";"";"Atrakce pro děti i dospělé, občerstvení.";"Restaurant on site";"Not suitable for diving";"Entrance fee";"";"";"Not suitable for nudists";"";""
"202721";"13.1241777";"49.7965193";"Vodní nádrž Hracholusky";"Dam";"3.8";"https://media.mapotic.com/cdn-cgi/image/metadata=none,width=900,height=900/media/image/geo/2941/202721/51c4ab42-eabb-460b-b301-c208c86668d5.jpg";"swimplaces:34";"";"";"";"";"";"Travnaté pláže s pozvolným vstupem do vody. Přímo v místě jsou k dispozici stánky s občerstvením i restaurace, sociální zařízení, restaurace i prodejna potravin. Návštěvníci mohou také využít možnost plavby výletní lodí po celé délce přehrady nebo podniknout výlet do krásných lesů v okolí.Vstup je 20 korun.";"Restaurant on site";"Not suitable for diving";"No entrance fee";"Very close";"";"Not suitable for nudists";"";""
"202722";"12.6759055";"50.0264244";"Rybník Kladská";"Lake (pond)";"2.0";"https://media.mapotic.com/cdn-cgi/image/metadata=none,width=900,height=900/media/image/geo/2941/202722/11f42585-0d8c-40aa-9b68-0f69be45eeae.jpg";"swimplaces:35";"";"";"";"";"";"Rašeliniště";"No restaurant";"Not suitable for diving";"No entrance fee";"";"";"Not suitable for nudists";"";""
"202723";"12.695432";"50.0510934";"Mýtský rybník";"Lake (pond)";"5.0";"https://media.mapotic.com/cdn-cgi/image/metadata=none,width=900,height=900/media/image/geo/2941/202723/7fcdc1d4-c827-4be4-8bbf-d303ca3a2e8e.jpg";"swimplaces:36";"";"";"";"";"";"Romantika jak má být.";"No restaurant";"Not suitable for diving";"No entrance fee";"";"";"Not suitable for nudists";"";""
"202724";"14.7068098";"49.1583754";"Bývalá pískovna";"Sand quarry";"4.8";"https://media.mapotic.com/cdn-cgi/image/metadata=none,width=900,height=900/media/image/geo/2941/202724/c676da3c-8eda-4095-8e71-b057440fcfc6_NeJaTrf.jpg";"swimplaces:37";"";"";"";"";"";"4 přírodní nádrže, i nuda pláž.";"No restaurant";"Not suitable for diving";"No entrance fee";"";"";"Suitable for nudists";"";""
"202725";"12.749103";"49.8727281";"Koupaliště Planá";"Swimming pool";"";"https://media.mapotic.com/cdn-cgi/image/metadata=none,width=900,height=900/media/image/geo/2941/202725/3e80724e-d571-4f88-a407-cbb65bc67beb.jpg";"swimplaces:39";"";"";"";"";"";"Velká vodní plocha, dostatek travnatých ploch v okolí, hospoda, beach volejball, fotbálek.";"Restaurant on site";"Not suitable for diving";"Entrance fee";"";"";"Not suitable for nudists";"";""
"202726";"14.7284713";"50.1699952";"Malvíny - Lázně Toušeň";"Sand quarry";"3.75";"https://media.mapotic.com/cdn-cgi/image/metadata=none,width=900,height=900/media/image/geo/2941/202726/pxl_20220615_130057249_mp_1904x2048.jpg";"swimplaces:40";"";"";"";"";"";"Čelákovická pískovna.Na levém břehu se nesmí koupat. Občerstvení tu není. Voda je tu čistá.";"No restaurant";"Not suitable for diving";"No entrance fee";"Very close";"";"Not suitable for nudists";"";""
"202727";"12.7792671";"49.8109499";"Lom Pavlovice";"Quarry";"";"https://media.mapotic.com/cdn-cgi/image/metadata=none,width=900,height=900/media/image/geo/2941/202727/b811c12c-3d0a-49f7-a5ff-b41473220641.jpg";"swimplaces:41";"";"";"";"";"";"Bývalý čedičový lom. Po jeho zatopení byl upraven na koupaliště a slouží také potápěčům. Kvalitní voda, špatné vylézání z vody, na třech místech schůdky z vody, půlka nudistická pláž.";"No restaurant";"Not suitable for diving";"No entrance fee";"";"";"Not suitable for nudists";"";""
"202728";"14.9771979";"50.1569848";"Sadská pískovna";"Sand quarry";"4.111111111111111";"https://media.mapotic.com/cdn-cgi/image/metadata=none,width=900,height=900/media/image/geo/2941/202728/image-e91ec6bd-28c4-40ee-91f8-e0636522d155_6eOZf1a.jpg";"swimplaces:42";"";"";"";"";"";"Z jedné strany stánky s pivem, z druhé strany klid. Ryby taky. Písečné pláže. Čistá voda. Jedna z pláží je nudistická.";"Restaurant on site";"Not suitable for diving";"No entrance fee";"Very close";"";"Suitable for nudists";"";""
"202729";"14.5709613";"48.9866836";"Mrhal";"Lake (pond)";"4.5";"https://media.mapotic.com/cdn-cgi/image/metadata=none,width=900,height=900/media/image/geo/2941/202729/2f0d2e57-0dbf-4f08-9a8f-f5f390243fd2.jpg";"swimplaces:43";"";"";"";"";"";"Rybník s hospůdkou.";"Restaurant on site";"Not suitable for diving";"Entrance fee";"Very close";"";"Not suitable for nudists";"";""
"202730";"14.4780174";"48.9606547";"Malý jez - ČB";"River (stream)";"3.0";"https://media.mapotic.com/cdn-cgi/image/metadata=none,width=900,height=900/media/image/geo/2941/202730/e28111d5-55af-428c-a2ca-ceff3bd68fc7.jpg";"swimplaces:44";"";"";"";"";"";"Rekreační oblast uprostřed města ČB - protékající Malše zchladí každého.";"Restaurant on site";"Not suitable for diving";"No entrance fee";"Very close";"";"Not suitable for nudists";"";""
"202731";"14.479455";"48.9565054";"Velký jez - ČB";"River (stream)";"3.5";"https://media.mapotic.com/cdn-cgi/image/metadata=none,width=900,height=900/media/image/geo/2941/202731/e0436f4b-f8e6-4fdb-9dbc-42fea1f60de2.jpg";"swimplaces:45";"";"";"";"";"";"Velká obdoba Malého jezu v ČB.";"Restaurant on site";"Not suitable for diving";"No entrance fee";"Very close";"";"Not suitable for nudists";"";""
"202732";"16.2044212";"49.5450065";"Domanínský rybník";"Lake (pond)";"4.25";"https://media.mapotic.com/cdn-cgi/image/metadata=none,width=900,height=900/media/image/geo/2941/202732/ae1e7000-6385-44bb-acea-d09f16fc3fe0.jpg";"swimplaces:46";"";"";"";"";"";"Výletní místo u Bystřice nad Pernštejnem - hospůdka, ubytování.";"Restaurant on site";"Not suitable for diving";"No entrance fee";"";"";"Not suitable for nudists";"";""
"202733";"16.2033";"49.47688";"Lom Dolní Rožínka";"Quarry";"4.444444444444445";"https://media.mapotic.com/cdn-cgi/image/metadata=none,width=900,height=900/media/image/geo/2941/202733/99705f5f-0d47-4ecc-85d1-df2867effd62.jpg";"swimplaces:47";"";"";"";"";"";"Bývalý lom - osvěžující, průzračná voda.
Placené parkoviště 20 kč/vuz";"No restaurant";"Not suitable for diving";"No entrance fee";"Very close";"";"Not suitable for nudists";"";""
"202734";"16.0910871";"49.6665648";"Milovský rybník";"Lake (pond)";"3.3333333333333335";"https://media.mapotic.com/cdn-cgi/image/metadata=none,width=900,height=900/media/image/geo/2941/202734/c0ac6be1-88c9-4d8d-aadb-61d69a49070b.jpg";"swimplaces:48";"";"";"";"";"";"Ideální místo na letní dovolenou -  v okolí lesy plné skal a mezi nimi rybník.";"Restaurant on site";"Not suitable for diving";"No entrance fee";"";"";"Not suitable for nudists";"";""
"202735";"13.3983424";"49.7739923";"Velký Bolevecký rybník";"Lake (pond)";"3.5714285714285716";"https://media.mapotic.com/cdn-cgi/image/metadata=none,width=900,height=900/media/image/geo/2941/202735/image-77092650-62ae-4913-838c-c359a670e52c_CBTUmlM.jpg";"swimplaces:49";"";"";"";"";"";"Rybník je dnes využíván zejména pro rekreaci a vodní sporty. Probíhá postupná přeměna jeho rybničního charakteru v jezerní (obměna rostlin a ryb), která by měla zlepšit čistotu vody.Jsou tu stánky s občerstvením a kemp s chatkami.";"Restaurant on site";"Not suitable for diving";"No entrance fee";"Very close";"";"Suitable for nudists";"";""
"202736";"14.8760089";"49.0688152";"Stráž nad Nežárkou";"Sand quarry";"2.4";"https://media.mapotic.com/cdn-cgi/image/metadata=none,width=900,height=900/media/image/geo/2941/202736/image-c8538b11-47d1-4973-b838-264f56c31e19_RCxlgv0.jpg";"swimplaces:50";"";"";"";"";"";"Pískovna kousek od hlavní cesty.";"No restaurant";"Not suitable for diving";"No entrance fee";"Very close";"";"Not suitable for nudists";"";""
"202737";"16.6730407";"49.2170289";"Lom Hády";"Quarry";"3.5";"https://media.mapotic.com/cdn-cgi/image/metadata=none,width=900,height=900/media/image/geo/2941/202737/64172a0e-cf37-4bbd-8d51-c17d6633bd73.jpg";"swimplaces:51";"";"";"";"";"";"Jezírka v lomu";"No restaurant";"Suitable for diving";"No entrance fee";"Very close";"";"Suitable for nudists";"";""
"202738";"16.3723114";"49.2843266";"Lom Lažánky";"Quarry";"4.090909090909091";"https://media.mapotic.com/cdn-cgi/image/metadata=none,width=900,height=900/media/image/geo/2941/202738/4738c50a-9703-4411-9a3a-60cf6253dc1e.jpg";"swimplaces:52";"";"";"";"";"";"hloubka, čistá voda, horší přístup k vodě";"No restaurant";"Suitable for diving";"No entrance fee";"Very close";"";"Suitable for nudists";"";""
"202739";"16.6529777";"49.4574023";"Koupaliště Újezd u Boskovic";"Swimming pool";"4.0";"https://media.mapotic.com/cdn-cgi/image/metadata=none,width=900,height=900/media/image/geo/2941/202739/image-b6f12785-009c-48c8-a7b4-07176064bf24_XrzsSLy.jpg";"swimplaces:53";"";"";"";"";"";"Venkovní koupaliště na kopci s krásným výhledem.";"No restaurant";"Not suitable for diving";"No entrance fee";"";"";"Not suitable for nudists";"";""
"202740";"16.6584226";"49.3665741";"Nádrž Pálava Blansko";"Dam";"4.5";"https://media.mapotic.com/cdn-cgi/image/metadata=none,width=900,height=900/media/image/geo/2941/202740/6f6b3c3e-8ae2-4df7-ad22-fc44237bc430.jpg";"swimplaces:54";"";"";"";"";"";"";"Restaurant on site";"Not suitable for diving";"No entrance fee";"Very close";"";"Not suitable for nudists";"";""
"202741";"16.6498395";"49.3495513";"Blansko - lom u nádraží";"Quarry";"4.875";"https://media.mapotic.com/cdn-cgi/image/metadata=none,width=900,height=900/media/image/geo/2941/202741/d44207e6-e949-4274-888c-aa8d1518e374.jpg";"swimplaces:55";"";"";"";"";"";"";"No restaurant";"Suitable for diving";"No entrance fee";"Very close";"";"Not suitable for nudists";"";""
"202742";"18.1705179";"49.8912574";"Hlučínská štěrkovna";"Lake (pond)";"4.833333333333333";"https://media.mapotic.com/cdn-cgi/image/metadata=none,width=900,height=900/media/image/geo/2941/202742/2df21ab9-04c9-46fa-af16-534a47b9a843.jpg";"swimplaces:56";"";"";"";"";"";"Jsou tu travnaté pláže.U vody je kemp, občerstvení, wakeboarding, nudistická pláž, bazén, hřiště na volejbal a je zde možnosti vodního lyžování. Vstupné je pro rok 2013, pro studenty 30,-- pro dospělé 40,-- děti zdarma.";"Restaurant on site";"Not suitable for diving";"Entrance fee";"Very close";"";"Suitable for nudists";"";""
"202743";"14.5716962";"50.4117715";"Harasov";"Lake (pond)";"3.6";"https://media.mapotic.com/cdn-cgi/image/metadata=none,width=900,height=900/media/image/geo/2941/202743/2d71c5d2-70ab-488c-a20c-2cfee218a34b.jpg";"swimplaces:57";"";"";"";"";"";"Osvěžení mezi pískovcovými skalami.";"Restaurant on site";"Not suitable for diving";"No entrance fee";"Very close";"";"Not suitable for nudists";"";""
"202744";"15.6670299";"49.7028028";"Břevnická nádrž Chotěboř";"Dam";"3.3333333333333335";"https://media.mapotic.com/cdn-cgi/image/metadata=none,width=900,height=900/media/image/geo/2941/202744/db43158d-6fd8-4d61-9a21-d5021b736d48.jpg";"swimplaces:58";"";"";"";"";"";"Koupání kousek za Chotěboří. Občas na ""pláži"" stánek s občerstvením.";"No restaurant";"Not suitable for diving";"No entrance fee";"Very close";"";"Not suitable for nudists";"";""
"202745";"17.1341392";"50.2977556";"Lom Rampa";"Quarry";"4.428571428571429";"https://media.mapotic.com/cdn-cgi/image/metadata=none,width=900,height=900/media/image/geo/2941/202745/a8d9e22b-57fd-4949-8425-9b71bd67439c.jpg";"swimplaces:59";"";"";"";"";"";"Nejčistší koupání v Jeseníkách a teplota vody osvěžující.";"No restaurant";"Not suitable for diving";"No entrance fee";"Very close";"";"Not suitable for nudists";"";""
"202746";"17.2545704";"50.2801592";"Písečňák v Písečné";"Sand quarry";"2.25";"https://media.mapotic.com/cdn-cgi/image/metadata=none,width=900,height=900/media/image/geo/2941/202746/87d4768c-7d93-42ce-87f1-baaed49f508e.jpg";"swimplaces:60";"";"";"";"";"";"Co víc k tomu dodat.. Snad jen, že tu bývá docela plno, ale místečko se dá najít. Částečně je tady i nudapláž.";"Restaurant on site";"Not suitable for diving";"Entrance fee";"100 m";"";"Suitable for nudists";"";""
"202747";"14.28047";"49.6900839";"Hříměždice";"Quarry";"4.8";"https://media.mapotic.com/cdn-cgi/image/metadata=none,width=900,height=900/media/image/geo/2941/202747/image-3265e64e-cf31-4b7e-82d3-ca6abebdf10b_2048x980.jpg";"swimplaces:61";"";"";"";"";"";"Zatopený lom";"Restaurant on site";"Not suitable for diving";"No entrance fee";"Very close";"";"Not suitable for nudists";"";""
"202748";"16.1845997";"49.5632907";"Skalský dvůr";"Lake (pond)";"3.0";"https://media.mapotic.com/cdn-cgi/image/metadata=none,width=900,height=900/media/image/geo/2941/202748/808acb04-7eb8-4661-8473-7ddd5b54b8a3.jpg";"swimplaces:62";"";"";"";"";"";"Rybník - momentálně ve stádiu odbahňování (17.7.2010).";"Restaurant on site";"Not suitable for diving";"No entrance fee";"";"";"Not suitable for nudists";"";""
"202749";"16.1335089";"49.5766498";"Zuberský rybník";"Lake (pond)";"";"https://media.mapotic.com/cdn-cgi/image/metadata=none,width=900,height=900/media/image/geo/2941/202749/807ed294-4ff4-4a9f-8747-97f392a331bd.jpg";"swimplaces:63";"";"";"";"";"";"Občerstvení poblíž.";"Restaurant on site";"Not suitable for diving";"No entrance fee";"";"";"Not suitable for nudists";"";""
"202750";"14.376306";"50.28893";"Vojkovice";"Lake (pond)";"3.176470588235294";"https://media.mapotic.com/cdn-cgi/image/metadata=none,width=900,height=900/media/image/geo/2941/202750/872c0142-8cfd-490e-a19a-fd7c61523b13.jpg";"swimplaces:64";"";"";"";"";"";"";"No restaurant";"Not suitable for diving";"No entrance fee";"Very close";"";"Not suitable for nudists";"";""
"202751";"16.7168679";"49.3326834";"Lom Rudice";"Quarry";"4.153846153846154";"https://media.mapotic.com/cdn-cgi/image/metadata=none,width=900,height=900/media/image/geo/2941/202751/photo_1536x2048.jpg";"swimplaces:65";"";"";"";"";"";"Písek, kaolín, zabarvená voda ale bez problémů.";"No restaurant";"Not suitable for diving";"No entrance fee";"Very close";"";"Not suitable for nudists";"";""
"202752";"16.7610278";"49.2492168";"Rybník Hádek";"Lake (pond)";"3.0";"https://media.mapotic.com/cdn-cgi/image/metadata=none,width=900,height=900/media/image/geo/2941/202752/1f264f59-fc48-41e9-b875-a0dc243cce32.jpg";"swimplaces:66";"";"";"";"";"";"";"No restaurant";"Not suitable for diving";"No entrance fee";"";"";"Not suitable for nudists";"";""
"202753";"16.6084423";"49.2243587";"Koupaliště Krpole";"Swimming pool";"";"https://media.mapotic.com/cdn-cgi/image/metadata=none,width=900,height=900/media/image/geo/2941/202753/65bf7617-ac07-4498-b5aa-74000edda123.jpg";"swimplaces:67";"";"";"";"";"";"Platí se vstupné.";"Restaurant on site";"Not suitable for diving";"Entrance fee";"";"http://www.koupalistekrpole.cz/koupaliste-brno/uvod/";"Not suitable for nudists";"";""
"202754";"16.5900316";"49.2172952";"Funpark Brno";"Swimming pool";"";"https://media.mapotic.com/cdn-cgi/image/metadata=none,width=900,height=900/media/image/geo/2941/202754/80f8bde1-451e-4639-b432-bb7d4efe29cd.jpg";"swimplaces:68";"";"";"";"";"";"Platí se vstupné.";"Restaurant on site";"Not suitable for diving";"Entrance fee";"";"http://www.koupalistebrno.cz/";"Not suitable for nudists";"";""
"202755";"16.5864911";"49.2009674";"Koupaliště Kraví hora";"Swimming pool";"4.142857142857143";"https://media.mapotic.com/cdn-cgi/image/metadata=none,width=900,height=900/media/image/geo/2941/202755/9e2eeed0-5ac2-4516-ad90-2bcba8c5d7fb.jpg";"swimplaces:69";"";"";"";"";"";"Platí se vstupné.";"Restaurant on site";"Not suitable for diving";"Entrance fee";"";"http://www.kravihora-brno.cz/";"Not suitable for nudists";"";""
"202756";"13.69993";"50.2449814";"Pnětluky - vodní nádrž";"Dam";"3.0";"https://media.mapotic.com/cdn-cgi/image/metadata=none,width=900,height=900/media/image/geo/2941/202756/ca668c9b-8a20-43a7-a30a-204fbea737e1.jpg";"swimplaces:70";"";"";"";"";"";"";"No restaurant";"Not suitable for diving";"No entrance fee";"";"";"Not suitable for nudists";"";""
"202757";"13.7310704";"50.2669869";"Konětopy - požární nádrž";"Dam";"2.0";"https://media.mapotic.com/cdn-cgi/image/metadata=none,width=900,height=900/media/image/geo/2941/202757/0ca35296-2206-463b-8e5f-ede698ba350d.jpg";"swimplaces:71";"";"";"";"";"";"";"No restaurant";"Not suitable for diving";"No entrance fee";"";"";"Not suitable for nudists";"";""
"202758";"12.3542979";"49.8847805";"Tirschenreuth";"Swimming pool";"5.0";"https://media.mapotic.com/cdn-cgi/image/metadata=none,width=900,height=900/media/image/geo/2941/202758/38b27e64-1b89-4dd3-88be-8b8d848d917f.jpg";"swimplaces:72";"";"";"";"";"";"Bazény, tobogán, 10m můstek.";"Restaurant on site";"Not suitable for diving";"Entrance fee";"Very close";"";"Not suitable for nudists";"";""
"202759";"15.1943925";"49.8542989";"Pastvičák";"Lake (pond)";"5.0";"https://media.mapotic.com/cdn-cgi/image/metadata=none,width=900,height=900/media/image/geo/2941/202759/bac4f5f5-5acd-4079-8810-f1fb74c1a50c.jpg";"swimplaces:73";"";"";"";"";"";"Skvělá nezelená voda - rašeliništní, čistý rybník v lese.";"No restaurant";"Not suitable for diving";"No entrance fee";"Very close";"";"Not suitable for nudists";"";""
"202760";"18.4501651";"49.7314035";"Žermanická přehrada";"Dam";"4.6";"https://media.mapotic.com/cdn-cgi/image/metadata=none,width=900,height=900/media/image/geo/2941/202760/fdbd287b-40ce-4552-901f-3da52a02a95f.jpg";"swimplaces:74";"";"";"";"";"";"";"Restaurant on site";"Not suitable for diving";"No entrance fee";"Very close";"";"Not suitable for nudists";"";""
"202761";"18.1443503";"49.8257638";"Koupaliště Vřesina";"Swimming pool";"4.5";"https://media.mapotic.com/cdn-cgi/image/metadata=none,width=900,height=900/media/image/geo/2941/202761/1581bc5a-ae7b-4bd8-8ede-e9018924f432.jpg";"swimplaces:75";"";"";"";"";"";"Největší koupaliště ve střední Evropě.";"Restaurant on site";"Not suitable for diving";"Entrance fee";"";"";"Not suitable for nudists";"";""
"202762";"14.0685942";"50.5221476";"Píšťany";"Sand quarry";"3.6666666666666665";"https://media.mapotic.com/cdn-cgi/image/metadata=none,width=900,height=900/media/image/geo/2941/202762/b96f373f-46d9-4a72-9d09-b21aeb5492dc.jpg";"swimplaces:76";"";"";"";"";"";"Tři kilometry ode Litoměřic.Dodnes je zachováno několik ostrůvků.Většina areálů je soukromá.Vstup je zadarmo.Je tu restaurace,kotviště pro lodě.Možnost pronajmout si jachty i lodě nebo vrtulník.";"No restaurant";"Not suitable for diving";"No entrance fee";"Very close";"";"Suitable for nudists";"";""
"202763";"14.96812";"49.9144";"Koupaliště Bohouňovice";"Swimming pool";"1.0";"https://media.mapotic.com/cdn-cgi/image/metadata=none,width=900,height=900/media/image/geo/2941/202763/f5771837-9843-44a6-b8ed-89091a78677b.jpg";"swimplaces:77";"";"";"";"";"";"V létě koupaliště, občerstvení, občas i kulturní program - disko, koncerty.";"No restaurant";"Not suitable for diving";"Entrance fee";"";"";"Not suitable for nudists";"";""
"202764";"14.8249772";"50.8595372";"Kristýna";"Lake (pond)";"4.333333333333333";"https://media.mapotic.com/cdn-cgi/image/metadata=none,width=900,height=900/media/image/geo/2941/202764/image-74a3d5a5-266a-4969-bc1b-989c0a46fd4c_MUQKro8.jpg";"swimplaces:78";"";"";"";"";"";"Přírodní koupaliště, písčitá pláž.";"No restaurant";"Not suitable for diving";"Entrance fee";"Very close";"";"Not suitable for nudists";"";""
"202766";"15.7964947";"50.1648478";"Opaťák";"Sand quarry";"4.857142857142857";"https://media.mapotic.com/cdn-cgi/image/metadata=none,width=900,height=900/media/image/geo/2941/202766/img_7171_2048x1536.jpg";"swimplaces:79";"";"";"";"";"";"Perfektní místo ke koupaní. Stará pískovna.";"Restaurant on site";"Not suitable for diving";"No entrance fee";"Very close";"";"Suitable for nudists";"";""
"202767";"14.3060448";"50.438931";"Pískovna Dobříň";"Sand quarry";"4.535714285714286";"https://media.mapotic.com/cdn-cgi/image/metadata=none,width=900,height=900/media/image/geo/2941/202767/image-8a7cb43a-1476-4468-861f-b04dce57fcbd_2048x1365.jpg";"swimplaces:80";"";"";"";"";"";"Pískovna, částečně stále funkční z jedné strany. Ze předu velká pláž. Kolem jsou další malé, schované pod vysokým břehem.";"No restaurant";"Not suitable for diving";"No entrance fee";"Very close";"";"Not suitable for nudists";"";""
"202768";"14.6476939";"50.5831713";"Máchovo jezero";"Lake (pond)";"4.0";"https://media.mapotic.com/cdn-cgi/image/metadata=none,width=900,height=900/media/image/geo/2941/202768/14b9e3fd-a601-41ff-8548-f97af1e874c5.jpg";"swimplaces:81";"";"";"";"";"";"Hodně lidí,písečná pláž a uprostřed dva ostrůvky.Splavská pláž je za stovku, děti osmdesát.Hlavní pláž za čtyřicet, děti za polovic.Je tu občerstvení. Krásné koupání blízko Starých splavů ideální pro rodiny s dětmi .";"Restaurant on site";"Not suitable for diving";"Entrance fee";"Very close";"http://www.machovojezero.cz/";"Not suitable for nudists";"";""
"202769";"17.2245028";"49.626547";"Koupaliště Poděbrady";"Swimming pool";"3.5";"https://media.mapotic.com/cdn-cgi/image/metadata=none,width=900,height=900/media/image/geo/2941/202769/2df7c6a1-f486-43e5-b72e-398c86fcf4de.jpg";"swimplaces:82";"";"";"";"";"";"Jedná se o přírodní koupaliště - rybník s možností občerstvení.";"Restaurant on site";"Not suitable for diving";"No entrance fee";"Very close";"";"Suitable for nudists";"";""
"202770";"13.4124401";"50.2199418";"Městké koupaliště Podbořany";"Swimming pool";"";"https://media.mapotic.com/cdn-cgi/image/metadata=none,width=900,height=900/media/image/geo/2941/202770/53f063e3-0383-46a2-a4ef-39c0e91225c0.jpg";"swimplaces:83";"";"";"";"";"";"Po rekonstrukci, volejbal a dětské brouzdaliště.";"No restaurant";"Not suitable for diving";"Entrance fee";"";"";"Not suitable for nudists";"";""
"202771";"17.4828532";"49.5566655";"Výkleky";"Quarry";"4.36";"https://media.mapotic.com/cdn-cgi/image/metadata=none,width=900,height=900/media/image/geo/2941/202771/fe72d862-7f5d-4e78-b706-0e61a2558e0e_d6B63oh.jpg";"swimplaces:84";"";"";"";"";"";"Zatopený kamenolom s křišťálovou vodou. Je zde parkoviště. Hloubka až kolem 30m. Koupání je zdarma.";"Restaurant on site";"Suitable for diving";"No entrance fee";"Very close";"";"Not suitable for nudists";"";""
"202772";"17.658849";"49.9453822";"Lom Šífr";"Quarry";"4.111111111111111";"https://media.mapotic.com/cdn-cgi/image/metadata=none,width=900,height=900/media/image/geo/2941/202772/01c18bd9-e655-49ad-a483-973327cff000.jpg";"swimplaces:85";"";"";"";"";"";"Zatopený kamenolom ve Svobodných Heřmanicích. Vhodné i pro potápění.";"No restaurant";"Suitable for diving";"No entrance fee";"Very close";"";"Not suitable for nudists";"";""
"202773";"17.2667315";"49.636915";"Pískovna Hlušovice";"Sand quarry";"1.5";"https://media.mapotic.com/cdn-cgi/image/metadata=none,width=900,height=900/media/image/geo/2941/202773/fc0c8d4e-5856-42f7-8e73-18ce61997683.jpg";"swimplaces:86";"";"";"";"";"";"";"No restaurant";"Not suitable for diving";"No entrance fee";"Very close";"";"Not suitable for nudists";"";""
"202774";"17.1320632";"49.6712553";"Pískovna Náklo";"Sand quarry";"4.2";"https://media.mapotic.com/cdn-cgi/image/metadata=none,width=900,height=900/media/image/geo/2941/202774/2b67915d-138c-4ca7-b3e3-7e865ef37922.jpg";"swimplaces:87";"";"";"";"";"";"Leží asi 10 km od Litovle. Rozlohu má kolem sta hektarů a hloubku 25 metrů. Travnaté i písčité pláže. Najdete tu i stánky s občerstvením.";"No restaurant";"Not suitable for diving";"No entrance fee";"Very close";"";"Not suitable for nudists";"";""
"202775";"16.1227801";"50.6136263";"Adršpašské jezero";"Lake (pond)";"4.5";"https://media.mapotic.com/cdn-cgi/image/metadata=none,width=900,height=900/media/image/geo/2941/202775/f4f79262-ea5e-402a-86c8-959af58695bc.jpg";"swimplaces:88";"";"";"";"";"";"Zakázané koupání ve skalách.";"No restaurant";"Not suitable for diving";"No entrance fee";"Very close";"";"Not suitable for nudists";"";""
"202776";"17.1657088";"49.6602001";"Hynkovský rybník";"Lake (pond)";"1.0";"https://media.mapotic.com/cdn-cgi/image/metadata=none,width=900,height=900/media/image/geo/2941/202776/2b049505-06e0-4d13-8f2d-528fbf7d7f68.jpg";"swimplaces:89";"";"";"";"";"";"";"No restaurant";"Not suitable for diving";"No entrance fee";"";"";"Not suitable for nudists";"";""
"202777";"17.2443619";"49.598879";"Krytý a venkovní bazén Olomouce";"Swimming pool";"3.5";"https://media.mapotic.com/cdn-cgi/image/metadata=none,width=900,height=900/media/image/geo/2941/202777/cc8ce8e0-3e7a-4889-bc0a-54c4dc4c5330.jpg";"swimplaces:90";"";"";"";"";"";"Placený vstup, tobogány";"Restaurant on site";"Not suitable for diving";"Entrance fee";"Very close";"";"Not suitable for nudists";"";""
"202778";"17.2980061";"49.4163229";"Donbas";"Lake (pond)";"";"https://media.mapotic.com/cdn-cgi/image/metadata=none,width=900,height=900/media/image/geo/2941/202778/11605e5a-dd60-4e6f-9ef7-06814a98ac9e.jpg";"swimplaces:91";"";"";"";"";"";"Tovačovské Annínské jezero ";"No restaurant";"Not suitable for diving";"No entrance fee";"";"";"Not suitable for nudists";"";""
"202779";"16.7156985";"48.878535";"Můšovská jezera";"Dam";"1.2";"https://media.mapotic.com/cdn-cgi/image/metadata=none,width=900,height=900/media/image/geo/2941/202779/ae3f640a-a3aa-48cf-b9be-53265e29f723.jpg";"swimplaces:92";"";"";"";"";"";"Pálava - kraj vinných sklípků";"Restaurant on site";"Not suitable for diving";"No entrance fee";"";"";"Not suitable for nudists";"";""
"202780";"14.6564486";"49.5705274";"Lom Miličín";"Quarry";"";"https://media.mapotic.com/cdn-cgi/image/metadata=none,width=900,height=900/media/image/geo/2941/202780/70870f3a-0497-4e3c-884b-439f66fc8416.jpg";"swimplaces:93";"";"";"";"";"";"Krásná lokalita pro plavce i potápěče";"No restaurant";"Suitable for diving";"No entrance fee";"";"";"Not suitable for nudists";"";""
"202781";"15.4957011";"50.4653067";"Rumchalpa";"Quarry";"2.3333333333333335";"https://media.mapotic.com/cdn-cgi/image/metadata=none,width=900,height=900/media/image/geo/2941/202781/237e451f-3460-4171-ae51-c63906bf3002.jpg";"swimplaces:94";"";"";"";"";"";"Zatopený kamenolom.";"Restaurant on site";"Suitable for diving";"Entrance fee";"Very close";"";"Not suitable for nudists";"";""
"202782";"13.7476733";"50.6431363";"Barbora";"Quarry";"";"https://media.mapotic.com/cdn-cgi/image/metadata=none,width=900,height=900/media/image/geo/2941/202782/89e29a20-4434-41f5-ba30-e161ac84a614.jpg";"swimplaces:95";"";"";"";"";"";"Zatopený povrchový hnědouhelný lom.";"Restaurant on site";"Suitable for diving";"No entrance fee";"";"";"Not suitable for nudists";"";""
"202783";"17.128819";"50.284641";"Arcibiskupský lom";"Quarry";"";"https://media.mapotic.com/cdn-cgi/image/metadata=none,width=900,height=900/media/image/geo/2941/202783/88d2c311-541f-48d4-85f1-653138d66725.jpg";"swimplaces:96";"";"";"";"";"";"Skrytý a málo navštěvovaný lom";"No restaurant";"Suitable for diving";"No entrance fee";"";"http://www.rychleby.cz/index.php?id=lomy.html";"Not suitable for nudists";"";""
"202784";"16.3412004";"49.1569616";"Koupaliště Zbyšov";"Swimming pool";"";"https://media.mapotic.com/cdn-cgi/image/metadata=none,width=900,height=900/media/image/geo/2941/202784/3992f9ea-0741-424f-9798-9c3bd7a337e7.jpg";"swimplaces:97";"";"";"";"";"";"Placený vstup.";"Restaurant on site";"Not suitable for diving";"Entrance fee";"";"http://www.mestozbysov.cz/fotoalbum13/index.html";"Not suitable for nudists";"";""
"202785";"15.8647167";"49.2135125";"Koupaliště Třebíč";"Swimming pool";"2.8333333333333335";"https://media.mapotic.com/cdn-cgi/image/metadata=none,width=900,height=900/media/image/geo/2941/202785/651500e4-b39b-428f-adbc-3bfcbfce8853.jpg";"swimplaces:98";"";"";"";"";"";"Placený vstup.";"Restaurant on site";"Not suitable for diving";"Entrance fee";"";"http://www.bazenlaguna.cz/";"Not suitable for nudists";"";""
"202786";"14.276047";"49.6772263";"Holubov ";"Swimming pool";"";"https://media.mapotic.com/cdn-cgi/image/metadata=none,width=900,height=900/media/image/geo/2941/202786/7815fbd5-44f6-4812-aac1-6a0012cf25a7.jpg";"swimplaces:100";"";"";"";"";"";"Holubov u restaurace, přírodní koupaliště.";"Restaurant on site";"Not suitable for diving";"No entrance fee";"";"";"Not suitable for nudists";"";""
"202787";"16.3153815";"49.1061586";"Plavecký bazén Nová Ves";"Swimming pool";"";"https://media.mapotic.com/cdn-cgi/image/metadata=none,width=900,height=900/media/image/geo/2941/202787/f696adc4-e729-40b3-a5df-801b89e71204.jpg";"swimplaces:101";"";"";"";"";"";"Krytý bazén. Placený vstup.";"Restaurant on site";"Not suitable for diving";"Entrance fee";"";"";"Not suitable for nudists";"";""
"202788";"13.610259";"49.2734734";"Lom Rabí";"Quarry";"4.0";"https://media.mapotic.com/cdn-cgi/image/metadata=none,width=900,height=900/media/image/geo/2941/202788/c301d1f2-9d72-4192-9d88-5258f50e52f7.jpg";"swimplaces:102";"";"";"";"";"";"Skvělá koupačka v bývalém lomu zhruba 1 km od městečka Rabí směrem po hlavní silnici na Sušici, parkování podel silnice bezproblémové, vstup na vlastní nebezpečí, dírou v plotě, krásná štěrkovo-kameninová plážička -(vápanec) voda nádherně průzračná, čistá a teplá.";"No restaurant";"Suitable for diving";"No entrance fee";"Very close";"";"Not suitable for nudists";"";""
"202789";"14.444889";"49.049656";"Hluboká nad Vltavou";"Swimming pool";"4.5";"https://media.mapotic.com/cdn-cgi/image/metadata=none,width=900,height=900/media/image/geo/2941/202789/ada51944-c51c-4eda-8f36-8834f0099b34.jpg";"swimplaces:104";"";"";"";"";"";"Venkovní aquapark";"Restaurant on site";"Not suitable for diving";"Entrance fee";"Very close";"http://mu.hluboka.cz/docs/cz/koupalisten.xml";"Not suitable for nudists";"";""
"202790";"15.0590804";"50.8260429";"Přehrada Fojtka (Mníšecká přehrada)";"Swimming pool";"4.0";"https://media.mapotic.com/cdn-cgi/image/metadata=none,width=900,height=900/media/image/geo/2941/202790/70d661a7-9e8c-4da7-9acc-3f72b25c476a.jpg";"swimplaces:105";"";"";"";"";"";"Čistá, ale studenější voda, travnaté pláže, nudistická pláž, rychlé občerstvení na hlavní přední pláži.";"Restaurant on site";"Not suitable for diving";"No entrance fee";"";"";"Not suitable for nudists";"";""
"202791";"12.8457269";"50.236809";"Koupaliště Rolava";"Swimming pool";"3.6666666666666665";"https://media.mapotic.com/cdn-cgi/image/metadata=none,width=900,height=900/media/image/geo/2941/202791/cb206c97-add1-4685-99a6-925361d07db6.jpg";"swimplaces:106";"";"";"";"";"";"Po rekonstrukci, dětské brouzdaliště, hospoda, pláž, bruslařská dráha.";"Restaurant on site";"Not suitable for diving";"No entrance fee";"Very close";"http://www.koupaliste-rolava.cz/cs/";"Not suitable for nudists";"";""
"202792";"12.779409024567723";"50.251680745190505";"Jimlíkov";"Quarry";"4.166666666666667";"https://media.mapotic.com/cdn-cgi/image/metadata=none,width=900,height=900/media/image/geo/2941/202792/040bed13-7e9d-4933-9e63-d55616b53eec.jpg";"swimplaces:107";"";"";"";"";"";"Zatopený kaolinový důl, originální bahýnko.";"No restaurant";"Not suitable for diving";"No entrance fee";"Very close";"";"Not suitable for nudists";"";""
"202793";"12.8531441";"50.2461615";"Sedlecký lom";"Quarry";"3.6666666666666665";"https://media.mapotic.com/cdn-cgi/image/metadata=none,width=900,height=900/media/image/geo/2941/202793/0d19a277-71fe-47d6-a07b-46d24743028f.jpg";"swimplaces:108";"";"";"";"";"";"Zatopený kaolinový lom.";"No restaurant";"Not suitable for diving";"No entrance fee";"Very close";"";"Not suitable for nudists";"";""
"202794";"12.9118898";"50.1044606";"Nový rybník";"Lake (pond)";"5.0";"https://media.mapotic.com/cdn-cgi/image/metadata=none,width=900,height=900/media/image/geo/2941/202794/0b5f74a4-c49d-4ad4-8e05-d7baf1cbfec1.jpg";"swimplaces:109";"";"";"";"";"";"Kdysi neznámé místo s lesním klidem.";"No restaurant";"Not suitable for diving";"No entrance fee";"Very close";"";"Not suitable for nudists";"";""
"202795";"12.9051736";"50.1954146";"Kolovák";"Lake (pond)";"3.0";"https://media.mapotic.com/cdn-cgi/image/metadata=none,width=900,height=900/media/image/geo/2941/202795/e2508331-eb23-47d9-ac39-16c5f6e41a42.jpg";"swimplaces:110";"";"";"";"";"";"Rybník kousek od letiště, znaj ho hlavně místní.";"Restaurant on site";"Not suitable for diving";"No entrance fee";"Very close";"";"Not suitable for nudists";"";""
"202796";"12.8297713";"50.2810265";"Děpoltovický rybník";"Lake (pond)";"5.0";"https://media.mapotic.com/cdn-cgi/image/metadata=none,width=900,height=900/media/image/geo/2941/202796/70898536-3371-4365-87dc-b309f3d53ae7.jpg";"swimplaces:111";"";"";"";"";"";"Restaurace nedaleko.";"Restaurant on site";"Not suitable for diving";"No entrance fee";"Very close";"";"Not suitable for nudists";"";""
"202797";"12.8727296";"50.2903772";"Velký rybník, Velas";"Lake (pond)";"3.0";"https://media.mapotic.com/cdn-cgi/image/metadata=none,width=900,height=900/media/image/geo/2941/202797/8b5537e0-e4b8-4c8d-8b82-f8d30d7764a3.jpg";"swimplaces:112";"";"";"";"";"";"Rekreační oblast, restaurace.";"Restaurant on site";"Not suitable for diving";"No entrance fee";"Very close";"";"Not suitable for nudists";"";""
"202798";"14.4435885";"50.3657662";"Vlíněves či Baraba";"Sand quarry";"3.0";"https://media.mapotic.com/cdn-cgi/image/metadata=none,width=900,height=900/media/image/geo/2941/202798/979da404-704f-4796-8567-bf7b8be324e9.jpg";"swimplaces:113";"";"";"";"";"";"Vytěžené pískovny, ty nové jsou OK, staré zarostlé rostlinami.";"No restaurant";"Not suitable for diving";"No entrance fee";"";"";"Not suitable for nudists";"";""
"202799";"14.0460208";"49.9342237";"Suchomastská přehrada";"Dam";"4.2";"https://media.mapotic.com/cdn-cgi/image/metadata=none,width=900,height=900/media/image/geo/2941/202799/b8a29816-8700-431d-a672-70f8430a8b1b.jpg";"swimplaces:114";"";"";"";"";"";"Bezva v horách.";"No restaurant";"Not suitable for diving";"No entrance fee";"";"";"Not suitable for nudists";"";""
"202800";"14.0183833";"49.928312";"Popovice";"Lake (pond)";"";"https://media.mapotic.com/cdn-cgi/image/metadata=none,width=900,height=900/media/image/geo/2941/202800/92cd9263-67d9-420e-be0f-07ac04500624.jpg";"swimplaces:115";"";"";"";"";"";"Přírodní koupaliště.";"No restaurant";"Not suitable for diving";"No entrance fee";"";"";"Not suitable for nudists";"";""
"202801";"14.1956666";"49.9584431";"Lom Velká Amerika";"Quarry";"3.739130434782609";"https://media.mapotic.com/cdn-cgi/image/metadata=none,width=900,height=900/media/image/geo/2941/202801/df6b86af-968f-40a7-b820-0e9c390aad8d.jpg";"swimplaces:117";"";"";"";"";"";"Krásný lom, super koupání s trošku horším přístupem do vody, ale nádherně čistou vodou!";"No restaurant";"Not suitable for diving";"No entrance fee";"Very close";"";"Not suitable for nudists";"";""
"202802";"12.6983073";"50.3129578";"Lesík";"Dam";"4.5";"https://media.mapotic.com/cdn-cgi/image/metadata=none,width=900,height=900/media/image/geo/2941/202802/4518e743-0bdc-49df-8565-01deba673e36.jpg";"swimplaces:118";"";"";"";"";"";"U přehrady camp, hospůdka, pláž.";"Restaurant on site";"Not suitable for diving";"No entrance fee";"";"";"Not suitable for nudists";"";""
"202803";"12.6848319";"50.275562";"Tatrovice";"Dam";"4.666666666666667";"https://media.mapotic.com/cdn-cgi/image/metadata=none,width=900,height=900/media/image/geo/2941/202803/eaf9c99e-84a3-4c43-a4f9-0e0ad16f689d.jpg";"swimplaces:119";"";"";"";"";"";"Nuda pláž, velká plocha ke koupání. Travnaté i písčité pláže s pozvolným vstupem do vody.Občerstvení tu není,vstup je zdarma.";"No restaurant";"Not suitable for diving";"No entrance fee";"Very close";"";"Suitable for nudists";"";""
"202804";"17.4282649";"49.0214803";"Koupaliště Ostrožská Nová Ves";"Sand quarry";"";"https://media.mapotic.com/cdn-cgi/image/metadata=none,width=900,height=900/media/image/geo/2941/202804/81b78b87-e04b-4e26-bf47-7d12786b0b06.jpg";"swimplaces:120";"";"";"";"";"";"Pískovna, přírodní koupaliště.Samotné koupaliště Albatros neboli Kámen je za třicet korun.Najdete tu občerstvení i kemp.";"No restaurant";"Not suitable for diving";"Entrance fee";"";"";"Not suitable for nudists";"";""
"202805";"16.5396598";"49.1942861";"Aquapark Kohoutovice";"Swimming pool";"";"https://media.mapotic.com/cdn-cgi/image/metadata=none,width=900,height=900/media/image/geo/2941/202805/9e2764f3-1309-44aa-bbbf-f9d85b97a0e8.jpg";"swimplaces:122";"";"";"";"";"";"Placený vstup.";"Restaurant on site";"Not suitable for diving";"Entrance fee";"";"http://www.aquapark-kohoutovice.cz/";"Not suitable for nudists";"";""
"202806";"17.1430012";"48.6306212";"Pískovna šaštín";"Sand quarry";"4.0";"https://media.mapotic.com/cdn-cgi/image/metadata=none,width=900,height=900/media/image/geo/2941/202806/cb1a7d68-a08a-4a7f-b55f-f8f7129df251.jpg";"swimplaces:123";"";"";"";"";"";"Přírodní koupaliště v rekreační oblasti Gazarka.";"Restaurant on site";"Not suitable for diving";"No entrance fee";"Very close";"";"Not suitable for nudists";"";""
"202807";"17.036201";"50.0360385";"Termální koupaliště Velké Losiny";"Swimming pool";"";"https://media.mapotic.com/cdn-cgi/image/metadata=none,width=900,height=900/media/image/geo/2941/202807/5b1c9e00-0719-49b1-9229-3d366b28d0a1.jpg";"swimplaces:125";"";"";"";"";"";"Bazén s termální vodou. Placený vstup.";"Restaurant on site";"Not suitable for diving";"Entrance fee";"";"http://www.ejeseniky.com/volny-cas/kryte-bazeny-koupaliste/koupaliste-velke-losiny";"Not suitable for nudists";"";""
"202808";"14.0858194";"50.1351339";"Akvapark Kladno";"Swimming pool";"4.4";"https://media.mapotic.com/cdn-cgi/image/metadata=none,width=900,height=900/media/image/geo/2941/202808/d5a2f995-5a52-45bd-8a7e-fb8aaea0b2bc.jpg";"swimplaces:126";"";"";"";"";"";"Placený vstup.";"Restaurant on site";"Not suitable for diving";"Entrance fee";"Very close";"http://www.aquapark-kladno.cz/cz/aquapark-kladno/";"Not suitable for nudists";"";""
"202809";"17.0102802";"49.6783023";"Nová Ves";"Quarry";"4.833333333333333";"https://media.mapotic.com/cdn-cgi/image/metadata=none,width=900,height=900/media/image/geo/2941/202809/a5e73966-662f-4ece-9f88-53d2f7775362.jpg";"swimplaces:129";"";"";"";"";"";"Lom";"Restaurant on site";"Suitable for diving";"Entrance fee";"Very close";"";"Not suitable for nudists";"";""
"202810";"17.4936679";"49.9258532";"Slezská Harta";"Dam";"5.0";"https://media.mapotic.com/cdn-cgi/image/metadata=none,width=900,height=900/media/image/geo/2941/202810/f855565b-cc2e-4475-ad49-9d4cbc07ad15.jpg";"swimplaces:130";"";"";"";"";"";"Přehradní nádrž na Bruntálsku.Největší vodní plocha na Bruntálsku.Vstupné se neplatí a stánky s občerstvením tu jsou.";"Restaurant on site";"Not suitable for diving";"No entrance fee";"";"";"Not suitable for nudists";"";""
"202811";"17.304443";"49.723113";"Koupaliště ve Šternberku";"Swimming pool";"";"https://media.mapotic.com/cdn-cgi/image/metadata=none,width=900,height=900/media/image/geo/2941/202811/0c9a4f06-d8da-4110-aba6-a6b4954b60d7.jpg";"swimplaces:131";"";"";"";"";"";"Placený vstup.";"Restaurant on site";"Not suitable for diving";"Entrance fee";"Very close";"http://www.sternberk.eu/index_web.php?jazyk=cz&sekce=turista&kategorie_1=sport&kategorie_2=koupaliste";"Not suitable for nudists";"";""
"202812";"17.126559";"49.78648";"Koupaliště v Uničově";"Swimming pool";"5.0";"https://media.mapotic.com/cdn-cgi/image/metadata=none,width=900,height=900/media/image/geo/2941/202812/cab68886-50bb-4ff1-bbe2-c33df8ce265a.jpg";"swimplaces:132";"";"";"";"";"";"Placený vstup.";"Restaurant on site";"Not suitable for diving";"Entrance fee";"";"http://www.unicov.cz/vismo/o_utvar.asp?id_org=17450&id_u=1111&p1=1445";"Not suitable for nudists";"";""
"202813";"17.523022";"49.2726798";"Kurovický lom";"Quarry";"4.6";"https://media.mapotic.com/cdn-cgi/image/metadata=none,width=900,height=900/media/image/geo/2941/202813/3d4aeacb-e488-4a96-b76e-69201f6d1b3d.jpg";"swimplaces:133";"";"";"";"";"";"Nádherné koupání v mlečně modré osvěžující voděnce.";"No restaurant";"Suitable for diving";"Entrance fee";"Very close";"";"Not suitable for nudists";"";""
"202814";"17.7475363";"49.5073621";"Opatovický lom";"Quarry";"4.2727272727272725";"https://media.mapotic.com/cdn-cgi/image/metadata=none,width=900,height=900/media/image/geo/2941/202814/image-683910b8-fe1b-49d5-927b-6e9cf4d9c751_99oni3L.jpg";"swimplaces:134";"";"";"";"";"";"Voda křišťálově čistá jako nikde jinde.";"No restaurant";"Suitable for diving";"No entrance fee";"";"";"Not suitable for nudists";"";""
"202815";"17.7230316";"49.3354205";"Přehrada na Rusavě";"Dam";"3.0";"https://media.mapotic.com/cdn-cgi/image/metadata=none,width=900,height=900/media/image/geo/2941/202815/25e8e2e6-706b-4c0c-987f-4d1f8ad6dc66.jpg";"swimplaces:135";"";"";"";"";"";"Voda jak brčál, ale po projížďce na kole skutečně osvěží.";"No restaurant";"Not suitable for diving";"No entrance fee";"Very close";"";"Not suitable for nudists";"";""
"202816";"17.6304632";"49.3155195";"Přílepská přehrada";"Dam";"";"https://media.mapotic.com/cdn-cgi/image/metadata=none,width=900,height=900/media/image/geo/2941/202816/3392d9ad-444d-46e4-b0e9-ee2d725907f6.jpg";"swimplaces:136";"";"";"";"";"";"Nic moc... Břeh je vysypaný hrubým kamením. Pozvolný vstup do vody. Vstup je zdarma.Občas sẗánek s občerstvením.";"No restaurant";"Not suitable for diving";"No entrance fee";"";"";"Not suitable for nudists";"";""
"202817";"15.8088114";"48.9113765";"Vodní nádrž Vranov";"Dam";"4.6";"https://media.mapotic.com/cdn-cgi/image/metadata=none,width=900,height=900/media/image/geo/2941/202817/image-ee045afd-1949-47b1-8d57-ae67502073ab_nfOfq0z.jpg";"swimplaces:138";"";"";"";"";"";"Přezdívá se jí také Moravský Jadran.Je tu kemp,písečná pláž,restaurace i zábavní podniky.Vstup je zdarma.";"Restaurant on site";"Not suitable for diving";"No entrance fee";"";"";"Not suitable for nudists";"";""
"202818";"14.893408";"49.898772";"Vlkančice";"Lake (pond)";"4.0";"https://media.mapotic.com/cdn-cgi/image/metadata=none,width=900,height=900/media/image/geo/2941/202818/8a0129cb-f47e-4f2a-9b68-9f0e08dcbd41.jpg";"swimplaces:139";"";"";"";"";"";"Malý rybník s travnatým okolím a malou hospůdkou.";"Restaurant on site";"Not suitable for diving";"No entrance fee";"";"";"Not suitable for nudists";"";""
"202819";"18.0730036";"49.2613803";"Koupaliště Zděchov";"Swimming pool";"4.5";"https://media.mapotic.com/cdn-cgi/image/metadata=none,width=900,height=900/media/image/geo/2941/202819/2a263dbf-634c-4a5c-85f7-43f01b8970a0.jpg";"swimplaces:140";"";"";"";"";"";"Velmi pěkné, nově zrekonstruované. Placený vstup.";"Restaurant on site";"Not suitable for diving";"Entrance fee";"";"http://www.vychodni-morava.cz/sluzba/3497/";"Not suitable for nudists";"";""
"202820";"14.5713475";"50.0073419";"Akvapark Čestlice";"Swimming pool";"4.545454545454546";"https://media.mapotic.com/cdn-cgi/image/metadata=none,width=900,height=900/media/image/geo/2941/202820/5db8e5a3-58a0-4f4f-b1b1-054043871476.jpg";"swimplaces:141";"";"";"";"";"";"3 haly a venkovní zóna tvoří největší akvapark v ČR. Placený vstup.";"Restaurant on site";"Not suitable for diving";"Entrance fee";"";"";"Not suitable for nudists";"";""
"202821";"17.1184778";"49.0497137";"Přírodní koupací biotop Bohuslavice";"Swimming pool";"5.0";"https://media.mapotic.com/cdn-cgi/image/metadata=none,width=900,height=900/media/image/geo/2941/202821/d39d4ba3-f8e4-4562-bdfc-6d0613ab0ca3.jpg";"swimplaces:142";"";"";"";"";"";"Nově vybudovaný koupací biotop s přírodní filtrací vody.";"Restaurant on site";"Not suitable for diving";"Entrance fee";"Very close";"";"Not suitable for nudists";"";""
"202822";"14.7813215";"49.9812154";"Vyžlovka";"Lake (pond)";"3.8461538461538463";"https://media.mapotic.com/cdn-cgi/image/metadata=none,width=900,height=900/media/image/geo/2941/202822/08e1b310-087b-44a0-ac51-84d2a06f42fa.jpg";"swimplaces:143";"";"";"";"";"";"Přírodní koupání s pozvolným vstupem do vody, možností koupě klobás, pití i zmrzliny. Cena pro dospělé 25kč, děti 10kč.

Na pláž s občerstvením je placený vstup.";"Restaurant on site";"Not suitable for diving";"No entrance fee";"Very close";"";"Not suitable for nudists";"";""
"202824";"15.4798224";"50.4715893";"Jahodnice";"Dam";"3.2";"https://media.mapotic.com/cdn-cgi/image/metadata=none,width=900,height=900/media/image/geo/2941/202824/38b3ee0c-788f-4551-a3c4-013a7fc2210f.jpg";"swimplaces:145";"";"";"";"";"";"Vodní nádrž.";"No restaurant";"Not suitable for diving";"No entrance fee";"";"";"Not suitable for nudists";"";""
"202825";"16.0417756";"49.6083728";"Rybník Sykovec";"Lake (pond)";"";"https://media.mapotic.com/cdn-cgi/image/metadata=none,width=900,height=900/media/image/geo/2941/202825/617e1280-cf43-4dfe-a8d7-1816bc7802b0.jpg";"swimplaces:146";"";"";"";"";"";"Kemp v lese.Leží u Obce Tři Studně na Ždársku.V borovém lesíku hřiště pro malé děti a další na plážový volejbal.Dají se půjčit lodičky nebo šlapadla.Nedaleko je hotel.Koupání je zadarmo";"Restaurant on site";"Not suitable for diving";"No entrance fee";"";"";"Not suitable for nudists";"";""
"202826";"16.0514745";"49.6171598";"Rybník Medlov";"Lake (pond)";"";"https://media.mapotic.com/cdn-cgi/image/metadata=none,width=900,height=900/media/image/geo/2941/202826/bef0318e-eefa-41fa-8100-969af0bb2b38.jpg";"swimplaces:147";"";"";"";"";"";"Kemp na louce.Je to největší rybník na Žďársku.Voda je čistá.Z jedné strany má malou pláž a plochu s lavičkami.Koupání je zdarma.Blízko je hotel.";"Restaurant on site";"Not suitable for diving";"No entrance fee";"";"";"Not suitable for nudists";"";""
"202827";"16.7508551";"49.220851";"Mokrá - Horákov";"Swimming pool";"3.25";"https://media.mapotic.com/cdn-cgi/image/metadata=none,width=900,height=900/media/image/geo/2941/202827/81a9bbfc-ce0c-4538-b4f5-c89af50e14b8.jpg";"swimplaces:148";"";"";"";"";"";"Placené koupaliště.";"Restaurant on site";"Not suitable for diving";"Entrance fee";"";"";"Not suitable for nudists";"";""
"202828";"16.2181309";"50.1154707";"Kostelec nad Orlicí";"Swimming pool";"4.0";"https://media.mapotic.com/cdn-cgi/image/metadata=none,width=900,height=900/media/image/geo/2941/202828/28682883-58b0-4e79-b614-a27b80dd6858.jpg";"swimplaces:149";"";"";"";"";"";"Koupaliště přes silnici autokemp.";"Restaurant on site";"Suitable for diving";"No entrance fee";"";"";"Not suitable for nudists";"";""
"202829";"16.127676";"50.2708609";"Opočno";"Swimming pool";"4.25";"https://media.mapotic.com/cdn-cgi/image/metadata=none,width=900,height=900/media/image/geo/2941/202829/5c6aa8ec-a04b-40bc-a3da-a45f9b2f111d.jpg";"swimplaces:150";"";"";"";"";"";"Koupaliště s čistou vodou s autokempem u rybníka Broumar.";"Restaurant on site";"Not suitable for diving";"Entrance fee";"Very close";"";"Not suitable for nudists";"";""
"202830";"15.1732352";"50.7364444";"Vodní nádrž Mšeno";"Dam";"4.625";"https://media.mapotic.com/cdn-cgi/image/metadata=none,width=900,height=900/media/image/geo/2941/202830/766106a8-40e3-4de0-8bd2-086bf0e04dc4.jpg";"swimplaces:151";"";"";"";"";"";"Přehrada takřka uprostřed města. Čistá voda. Travnaté ale i písečné pláže. Je tu restaurace a půjčovna lodiček a šlapadel.Vstup do vody je pozvolný.";"Restaurant on site";"Not suitable for diving";"No entrance fee";"Very close";"http://cs.wikipedia.org/wiki/M%C5%A1eno_%28p%C5%99ehrada%29";"Not suitable for nudists";"";""
"202831";"12.6564327";"49.5776968";"Smolov";"Dam";"4.666666666666667";"https://media.mapotic.com/cdn-cgi/image/metadata=none,width=900,height=900/media/image/geo/2941/202831/photo_2048x1536.jpg";"swimplaces:152";"";"";"";"";"";"Nově vybudovaná nádrž v krásném lese s rašeliništní vodou.";"No restaurant";"Not suitable for diving";"No entrance fee";"";"";"Not suitable for nudists";"";""
"202832";"15.8384016";"49.7865871";"Lom Trhová kamenice";"Quarry";"4.666666666666667";"https://media.mapotic.com/cdn-cgi/image/metadata=none,width=900,height=900/media/image/geo/2941/202832/c0c055e4-015a-45f5-b88f-54b2c1006345.jpg";"swimplaces:153";"";"";"";"";"";"Zatopený kamenolom, zákaz vjezdu.";"No restaurant";"Suitable for diving";"No entrance fee";"";"";"Not suitable for nudists";"";""
"202833";"2.5904348";"42.2762166";"Riera d Escales";"Other";"5.0";"https://media.mapotic.com/cdn-cgi/image/metadata=none,width=900,height=900/media/image/geo/2941/202833/11f8c77d-c3d4-4cd6-a505-1a955ffd55d6.jpg";"swimplaces:154";"";"";"";"";"";"Nádherné koupání v osvěžující vodě, bouldering, spousty horozlezců v okolí...";"No restaurant";"Not suitable for diving";"No entrance fee";"Very close";"";"Not suitable for nudists";"";""
"202834";"1.327586174";"41.128738501922";"3km pláž u Tarragony";"Other";"5.0";"https://media.mapotic.com/cdn-cgi/image/metadata=none,width=900,height=900/media/image/geo/2941/202834/037e483b-784d-4510-bf45-78a812917f4a.jpg";"swimplaces:155";"";"";"";"";"";"Jedna z nej pláží ve španělsku, možnost přespání na pláži či v lesíku.";"Restaurant on site";"Suitable for diving";"No entrance fee";"";"";"Not suitable for nudists";"";""
"202835";"2.9837754";"41.7603198";"Costa Brava";"Other";"";"https://media.mapotic.com/cdn-cgi/image/metadata=none,width=900,height=900/media/image/geo/2941/202835/7ebe74df-711c-464b-8392-b04de64d00f8.jpg";"swimplaces:156";"";"";"";"";"";"Nadherné písčité pláže a relativně málo turistů";"No restaurant";"Not suitable for diving";"No entrance fee";"";"";"Not suitable for nudists";"";""
"202836";"-1.983032";"36.909686";"San Pedro - Las Negras";"Other";"";"https://media.mapotic.com/cdn-cgi/image/metadata=none,width=900,height=900/media/image/geo/2941/202836/c470c95f-1d18-48e1-92a1-e1bb15e3d928.jpg";"swimplaces:157";"";"";"";"";"";"Hippie komunita, bydleni v jeskynich etc.";"Restaurant on site";"Suitable for diving";"No entrance fee";"";"";"Not suitable for nudists";"";""
"202837";"-3.7663469";"37.1525303";"Santa Fe Hot Springs";"Other";"";"https://media.mapotic.com/cdn-cgi/image/metadata=none,width=900,height=900/media/image/geo/2941/202837/3ea1e8c9-a7de-4fcc-818b-145b3a50509a.jpg";"swimplaces:158";"";"";"";"";"";"Horké prameny u Santa Fe. Bohužel nemám přesnou GPS, je třeba se zeptat na benzině. Na místě možnost přespání v _polopoušti_";"No restaurant";"Not suitable for diving";"No entrance fee";"";"";"Not suitable for nudists";"";""
"202838";"16.997094";"49.28263";"Vyškov";"Swimming pool";"3.75";"https://media.mapotic.com/cdn-cgi/image/metadata=none,width=900,height=900/media/image/geo/2941/202838/56c2aaf2-32d3-4fa0-85d1-78acb402c455.jpg";"swimplaces:160";"";"";"";"";"";"aquapark";"Restaurant on site";"Suitable for diving";"Entrance fee";"";"http://www.bazenvyskov.cz/";"Not suitable for nudists";"";""
"202839";"17.1678814";"49.3283065";"Koupaliště Nezamyslice";"Swimming pool";"5.0";"https://media.mapotic.com/cdn-cgi/image/metadata=none,width=900,height=900/media/image/geo/2941/202839/6edc432e-dc53-4c24-8015-f7a73cba032f.jpg";"swimplaces:161";"";"";"";"";"";"";"Restaurant on site";"Suitable for diving";"Entrance fee";"Very close";"";"Not suitable for nudists";"";""
"202840";"14.6511271";"49.4571233";"Košín";"Lake (pond)";"";"https://media.mapotic.com/cdn-cgi/image/metadata=none,width=900,height=900/media/image/geo/2941/202840/6414a0e0-addb-4499-9994-46540b8d108d.jpg";"swimplaces:162";"";"";"";"";"";"Rybník nedaleko Tábora, který disponuje relativně čistou vodou a kvete dle počasí buď pozdě, nebo vůbec.";"No restaurant";"Not suitable for diving";"No entrance fee";"";"";"Not suitable for nudists";"";""
"202841";"16.4865413";"49.1860963";"Popůvky - dolní rybník";"Lake (pond)";"3.0";"https://media.mapotic.com/cdn-cgi/image/metadata=none,width=900,height=900/media/image/geo/2941/202841/f2fe6a82-9152-4bf3-bc56-5b7456594035.jpg";"swimplaces:163";"";"";"";"";"";"";"Restaurant on site";"Not suitable for diving";"No entrance fee";"";"";"Not suitable for nudists";"";""
"202842";"15.9279444";"49.5906173";"vodní nádrž Pilák";"Lake (pond)";"3.75";"https://media.mapotic.com/cdn-cgi/image/metadata=none,width=900,height=900/media/image/geo/2941/202842/639fec66-0f2b-4a7e-8ef2-7c2c553b5a5e.jpg";"swimplaces:165";"";"";"";"";"";"Pilská vodní nádrž, blízko Žďáru nad Sázavou.";"Restaurant on site";"Not suitable for diving";"No entrance fee";"Very close";"";"Not suitable for nudists";"";""
"202843";"14.9624028";"48.9837476";"Staňkov";"Lake (pond)";"";"https://media.mapotic.com/cdn-cgi/image/metadata=none,width=900,height=900/media/image/geo/2941/202843/1d7823e8-a8b6-4dea-a62b-9a28a7585c84.jpg";"swimplaces:166";"";"";"";"";"";"Poblíž je pohraniční RAKOUSKO";"No restaurant";"Not suitable for diving";"No entrance fee";"";"";"Not suitable for nudists";"";""
"202844";"14.1758397";"49.9541083";"Malá Amerika";"Quarry";"4.5";"https://media.mapotic.com/cdn-cgi/image/metadata=none,width=900,height=900/media/image/geo/2941/202844/e551f491-1596-469d-b5f3-90dd29dfac17.jpg";"swimplaces:167";"";"";"";"";"";"";"No restaurant";"Suitable for diving";"No entrance fee";"Very close";"";"Not suitable for nudists";"";""
"202845";"14.5159009";"50.2407032";"Kojetice";"Quarry";"3.444444444444444";"https://media.mapotic.com/cdn-cgi/image/metadata=none,width=900,height=900/media/image/geo/2941/202845/photo_Af9r6BF.jpg";"swimplaces:168";"";"";"";"";"";"Zatopený lom. Každým rokem přibývá lidí i bordelu okolo.";"No restaurant";"Suitable for diving";"No entrance fee";"Very close";"";"Not suitable for nudists";"";""
"202846";"14.4013491";"49.9918457";"Modřanské laguny";"River (stream)";"4.5";"https://media.mapotic.com/cdn-cgi/image/metadata=none,width=900,height=900/media/image/geo/2941/202846/f1794c91-5254-45e0-b634-9788defaeb84.jpg";"swimplaces:169";"";"";"";"";"";"Příjemná oddychová louka na břehu Vltavy s malou písčitou pláží, pozvolný vstup do vody, studená voda, stín, skromné zázemí.";"No restaurant";"Not suitable for diving";"No entrance fee";"500 m";"";"Not suitable for nudists";"";""
"202847";"14.2768088";"50.0298473";"Jinočany";"Lake (pond)";"3.8181818181818183";"https://media.mapotic.com/cdn-cgi/image/metadata=none,width=900,height=900/media/image/geo/2941/202847/8f288ef4-7ad1-447e-9734-d2f0bb22f4ee.jpg";"swimplaces:170";"";"";"";"";"";"Rybník.";"Restaurant on site";"Not suitable for diving";"No entrance fee";"Very close";"";"Not suitable for nudists";"";""
"202848";"13.1132289";"49.6377418";"Lom - Hradec u Stoda";"Quarry";"4.7";"https://media.mapotic.com/cdn-cgi/image/metadata=none,width=900,height=900/media/image/geo/2941/202848/image-5d86ca6c-7007-41e7-b21c-50e532541996_2048x1536.jpg";"swimplaces:172";"";"";"";"";"";"čistá voda, stánek s občerstvením, hezké okolí, dobrá dostupnost";"Restaurant on site";"Suitable for diving";"No entrance fee";"Very close";"";"Not suitable for nudists";"";""
"202849";"13.983536";"49.0364237";"Vodní nádrž Husinec";"Dam";"3.3333333333333335";"https://media.mapotic.com/cdn-cgi/image/metadata=none,width=900,height=900/media/image/geo/2941/202849/2dd413fb-82fa-4f18-aba4-99584f970a5a.jpg";"swimplaces:173";"";"";"";"";"";"Moc pěkná nádrž, skvělé koupáníčko, čistá voda.";"No restaurant";"Suitable for diving";"No entrance fee";"Very close";"";"Not suitable for nudists";"";""
"202850";"17.5960639";"48.8095108";"Vodní nádrž Stará Myjava";"Dam";"5.0";"https://media.mapotic.com/cdn-cgi/image/metadata=none,width=900,height=900/media/image/geo/2941/202850/5735df54-8afd-4cd4-b189-443b46a33ee7.jpg";"swimplaces:174";"";"";"";"";"";"Nádherná a studená voda, kolem lesy, kopce, nádhera.";"Restaurant on site";"Not suitable for diving";"No entrance fee";"";"";"Not suitable for nudists";"";""
"202851";"14.5016852";"49.6634467";"Lom Bořená Hora";"Quarry";"4.333333333333333";"https://media.mapotic.com/cdn-cgi/image/metadata=none,width=900,height=900/media/image/geo/2941/202851/dc99b1f4-80d4-40b1-a1bf-88f5b3554a40.jpg";"swimplaces:175";"";"";"";"";"";"Jeden z moc hezkých lomů, bohužel vykoupený a oplocený bandou potápěčů";"Restaurant on site";"Suitable for diving";"Entrance fee";"";"";"Not suitable for nudists";"";""
"202852";"14.7097924";"48.6789429";"Zlatá Ktiš";"Dam";"5.0";"https://media.mapotic.com/cdn-cgi/image/metadata=none,width=900,height=900/media/image/geo/2941/202852/846a8015-8f02-4aa2-81a7-f45a108eb89c.jpg";"swimplaces:176";"";"";"";"";"";"Velmi osvěžující koupačka :)";"Restaurant on site";"Not suitable for diving";"No entrance fee";"";"";"Not suitable for nudists";"";""
"202853";"15.4423573";"49.0692792";"Sasiňák";"Lake (pond)";"";"https://media.mapotic.com/cdn-cgi/image/metadata=none,width=900,height=900/media/image/geo/2941/202853/14b9e546-f869-454e-bcf5-0407bc2f23b0.jpg";"swimplaces:177";"";"";"";"";"";"Super rybníček, nedaleko od města.";"No restaurant";"Not suitable for diving";"No entrance fee";"";"";"Not suitable for nudists";"";""
"202854";"15.2355268";"49.0953216";"Zvůle";"Lake (pond)";"5.0";"https://media.mapotic.com/cdn-cgi/image/metadata=none,width=900,height=900/media/image/geo/2941/202854/56dd9c47-0e74-41c6-8315-a2fc9ab976b4.jpg";"swimplaces:178";"";"";"";"";"";"Super písčité pláže, občerstvení, ...";"Restaurant on site";"Not suitable for diving";"No entrance fee";"";"";"Not suitable for nudists";"";""
"202855";"14.3126699";"48.8117046";"Jelení lávka";"River (stream)";"1.0";"https://media.mapotic.com/cdn-cgi/image/metadata=none,width=900,height=900/media/image/geo/2941/202855/e4326657-c383-4868-ab0e-7b90c50ce328.jpg";"swimplaces:179";"";"";"";"";"";"Velice oblíbená koupačka, hlavně mezi vodáky!";"No restaurant";"Not suitable for diving";"No entrance fee";"";"";"Not suitable for nudists";"";""
"202856";"15.5780422";"49.4078034";"Vodní Ráj Jihlava";"Swimming pool";"5.0";"https://media.mapotic.com/cdn-cgi/image/metadata=none,width=900,height=900/media/image/geo/2941/202856/1f601f4f-49b5-4420-b0fb-fe0fd4003011.jpg";"swimplaces:180";"";"";"";"";"";"tobogán, vířidla, tekoucí řeka, spousta travnate plochy, občerstvení";"Restaurant on site";"Not suitable for diving";"Entrance fee";"";"";"Not suitable for nudists";"";""
"202857";"15.42245";"49.0833631";"Koupaliště Dačice";"Swimming pool";"5.0";"https://media.mapotic.com/cdn-cgi/image/metadata=none,width=900,height=900/media/image/geo/2941/202857/a18a994a-cf32-46ea-a92d-73791064b1ff.jpg";"swimplaces:181";"";"";"";"";"";"Městské koupaliště, s tobogánem, občerstvením, parkovištěm.";"Restaurant on site";"Suitable for diving";"Entrance fee";"";"";"Not suitable for nudists";"";""
"202858";"15.4942339";"49.0747755";"Lesní rybník";"Lake (pond)";"";"https://media.mapotic.com/cdn-cgi/image/metadata=none,width=900,height=900/media/image/geo/2941/202858/b6294b42-ea5f-4e2a-adfe-2a2903796eba.jpg";"swimplaces:182";"";"";"";"";"";"Klidné místečko, díky poloze v lesích nebývá zelený, často se na vás přijde podívat i nějaká ta srna.";"No restaurant";"Suitable for diving";"No entrance fee";"";"";"Not suitable for nudists";"";""
"202859";"14.4867493";"48.9490954";"U Špačků - dospělí";"River (stream)";"4.666666666666667";"https://media.mapotic.com/cdn-cgi/image/metadata=none,width=900,height=900/media/image/geo/2941/202859/f97533d9-c557-4549-a2ec-dacc23ebb4d8.jpg";"swimplaces:183";"";"";"";"";"";"Super koupačka pro dospělé.";"No restaurant";"Not suitable for diving";"No entrance fee";"Very close";"";"Not suitable for nudists";"";""
"202860";"14.4876022";"48.9487255";"U Špačků - děti";"River (stream)";"4.0";"https://media.mapotic.com/cdn-cgi/image/metadata=none,width=900,height=900/media/image/geo/2941/202860/6f525a57-0f96-4a5e-8333-542cdf28b4f2.jpg";"swimplaces:184";"";"";"";"";"";"Malá hrázka, pod kterou je vybetonovaná mělká vana, ideální pro malé děti.";"No restaurant";"Not suitable for diving";"No entrance fee";"Very close";"";"Not suitable for nudists";"";""
"202861";"14.7332349";"49.1719625";"Jez u pily";"River (stream)";"";"https://media.mapotic.com/cdn-cgi/image/metadata=none,width=900,height=900/media/image/geo/2941/202861/7f465551-7f87-4aa3-b1cd-5619955396c7.jpg";"swimplaces:185";"";"";"";"";"";"Krasné koupání. Pokud jedete vodu, ideální místo na svačinku.";"No restaurant";"Not suitable for diving";"No entrance fee";"";"";"Not suitable for nudists";"";""
"202862";"14.9076321";"50.1819165";"Ostrá - Písák Stratov";"Sand quarry";"3.5";"https://media.mapotic.com/cdn-cgi/image/metadata=none,width=900,height=900/media/image/geo/2941/202862/39704c63-0dab-4c7e-aee9-8c98d64de6c2.jpg";"swimplaces:186";"";"";"";"";"";"Volně přístupná pískovna. Zelená voda. Písčité pláže. ";"No restaurant";"Not suitable for diving";"No entrance fee";"Very close";"";"Not suitable for nudists";"";""
"202863";"14.8959484";"50.1772239";"Kemp Ostrá";"Lake (pond)";"";"https://media.mapotic.com/cdn-cgi/image/metadata=none,width=900,height=900/media/image/geo/2941/202863/5c19c4c9-d4be-4e91-894f-4871bad28ac0.jpg";"swimplaces:187";"";"";"";"";"";"Bezplatné koupání v prostor kempu, vhodné pro rodiny s dětmi.
";"Restaurant on site";"Not suitable for diving";"No entrance fee";"Very close";"";"Not suitable for nudists";"";""
"202865";"16.11802";"49.12833";"Dalešická přehrada";"Dam";"";"https://media.mapotic.com/cdn-cgi/image/metadata=none,width=900,height=900/media/image/geo/2941/202865/8805dd50-ab0c-47ef-8c00-428dd6c0910b.jpg";"swimplaces:189";"";"";"";"";"";"Také se nazývá Horácké moře. Je tu kemp Wilsonka. Vstup je do vody pozvolný. Vstupné od 23 června je 25 korun. V kempu občerstvení. Svézt je možno se i parníkem.
";"Restaurant on site";"Not suitable for diving";"Entrance fee";"";"http://www.dalesickaprehrada.cz/";"Not suitable for nudists";"";""
"202866";"15.5802";"49.7922";"Lom Borek u Vilémova";"Quarry";"4.0";"https://media.mapotic.com/cdn-cgi/image/metadata=none,width=900,height=900/media/image/geo/2941/202866/3c8efdc0-6ea9-463e-8692-9df374766230.jpg";"swimplaces:190";"";"";"";"";"";"!! 15.8.2013 - Prosíme návštěvníky, aby po sobě uklízeli, případně si vzali pytle na odpad a pomohli místo udržet čisté, v poslední době je zde velké množství odpadků, igelitek, vajglů atd. Nebuďme prasata! Bhom Shankar !!
---
Stále čistá voda. Dá se tu i potápět. Hloubka je třicet metrů. Lom je bez občerstvení, koupání je zadarmo.
";"No restaurant";"Suitable for diving";"No entrance fee";"Very close";"http://mineralyzh.blog.cz/0906/lom-borek-u-vilemova";"Not suitable for nudists";"";""
"202867";"15.37566";"49.22869";"Velký pařezitý rybník";"Lake (pond)";"4.75";"https://media.mapotic.com/cdn-cgi/image/metadata=none,width=900,height=900/media/image/geo/2941/202867/image-b177d8b4-0c1d-46d7-82ee-babd68a0ad60_2y88Q98.jpg";"swimplaces:191";"";"";"";"";"";"Je blízko Řásné na Telčsku. Byl založen roku 1505. Je tu přírodní rezervace. Vstup je zdarma. Je tu kemp. V sezoně je i občerstvení.";"Restaurant on site";"Not suitable for diving";"No entrance fee";"";"http://www.turistik.cz/cz/kraje/vysocina/okres-jihlava/rasna/velky-parezity-rybnik/";"Not suitable for nudists";"";""
"202868";"15.43612";"49.27908";"Lom Čenkov";"Quarry";"4.5";"https://media.mapotic.com/cdn-cgi/image/metadata=none,width=900,height=900/media/image/geo/2941/202868/image-047b5b84-3b0b-4373-8a6b-6c7979351fe9_pjhHjLg.jpg";"swimplaces:192";"";"";"";"";"";"Leží mezi Třeští a Růženou na Jihlavsku. Bez občerstvení. Koupání je bezplatné. Břehy jsou strmé.";"No restaurant";"Suitable for diving";"No entrance fee";"";"http://wikimapia.org/1441161/cs/Lom-%C4%8Cenkov";"Not suitable for nudists";"";""
"202869";"15.848";"49.67336";"Rybník Řeka u Krucemburku";"Lake (pond)";"3.0";"https://media.mapotic.com/cdn-cgi/image/metadata=none,width=900,height=900/media/image/geo/2941/202869/9269019b-f199-4843-9fc2-fe76183d865e.jpg";"swimplaces:193";"";"";"";"";"";"Je přístupná pláž ,kemp,lze si půjčit loď.Občerstvení je k dispozici.Vhodné i pro cykloturisty(vedou zde dvě cyklotrasy).Na jihu je nepřístupná rezervace.";"Restaurant on site";"Not suitable for diving";"No entrance fee";"Very close";"http://www.dokempu.cz/kempy/cr/kraj-vysocina/krucemburk/kemp-rekreacni-areal-kemp-more-u-rybniku-reka-5420/";"Not suitable for nudists";"";""
"202870";"13.75003";"50.64304";"Jezero Barbora u Teplic";"Quarry";"4.111111111111111";"https://media.mapotic.com/cdn-cgi/image/metadata=none,width=900,height=900/media/image/geo/2941/202870/c2fa65c5-9ad1-4f7a-aeb5-ec58f3e8f012.jpg";"swimplaces:194";"";"";"";"";"";"Zatopený důl, který má  kilometrovou písčitou i travnatou pláž. Voda je čistá. Vstup je 25 korun. Je tu kemp i možnost občerstvení. Odvážlivci mohou zkusit Bungee jumping. Jezero je hluboké až 60 metrů. Nuda pláž je tu od roku 1988 - naleznete od hlavní pláže vlevo zhruba 800m za budovou sportovních potápěčů.";"Restaurant on site";"Suitable for diving";"Entrance fee";"Very close";"http://www.vodninadrzbarbora.cz/";"Suitable for nudists";"";""
"202871";"13.66379";"50.49108";"Benedikt u mostu";"Dam";"3.5";"https://media.mapotic.com/cdn-cgi/image/metadata=none,width=900,height=900/media/image/geo/2941/202871/80316d9f-ff48-4e8c-aee8-9cc83fe49208.jpg";"swimplaces:195";"";"";"";"";"";"Je zde čistá voda, písčité pláže a vstup je zdarma. Vodní nádrž je i s občerstvením i restaurací. Kolem vede dvou kilometrový okruh pro cyklisty. Dále je zde tenisový kurt, hřiště na petanque.";"Restaurant on site";"Not suitable for diving";"No entrance fee";"";"http://www.tsmost.cz/sluzby/benedikt";"Not suitable for nudists";"";""
"202872";"13.42499";"50.47246";"Kamencové jezero v Chomutově";"Lake (pond)";"4.222222222222222";"https://media.mapotic.com/cdn-cgi/image/metadata=none,width=900,height=900/media/image/geo/2941/202872/image-fd3faebd-8a20-482d-a5e3-9947de174906_2048x1536.jpg";"swimplaces:196";"";"";"";"";"";"Voda je zde čistá, prý zlepšuje pleť. Blízko od želez. zastávky. Je zde i zoologická zahrada. Vstupné je 60 kč na den, děti polovic. Ubytování v hotelu, kempu nebo v ubytovně.";"Restaurant on site";"Not suitable for diving";"Entrance fee";"Very close";"http://www.kamencovejezero.cz/";"Suitable for nudists";"";""
"202873";"13.61042";"50.5254";"Matylda u Mostu";"Quarry";"3.0";"https://media.mapotic.com/cdn-cgi/image/metadata=none,width=900,height=900/media/image/geo/2941/202873/6ee2fc5b-8869-4b94-8159-811fe4875abc.jpg";"swimplaces:197";"";"";"";"";"";"Vodní nádrž. Leží pod dvěma vrchy Hněvínem A Širákem. Dříve jako důl. Písčité pláže, volný vstup, parkoviště. Možnost zde jezdit po vodních skůtrech a lyžích. Je zde občerstvení a kemp.";"Restaurant on site";"Not suitable for diving";"No entrance fee";"";"http://www.krusnohorci.net/vylet/142-vodni-nadrz-matylda";"Not suitable for nudists";"";""
"202874";"13.37952";"50.35941";"Přehrada Nechranice";"Dam";"4.5";"https://media.mapotic.com/cdn-cgi/image/metadata=none,width=900,height=900/media/image/geo/2941/202874/296415c1-18e7-4349-89f7-18eebaedb3b6.jpg";"swimplaces:198";"";"";"";"";"";"Leží mezi Kadaní, Chomutovem a Žatcem. Vodní nádrž s největší hrází ve Střední Evropě. Je zde čistá voda a možnost jachtingu a windsurfigu. Vstup je volný. Je tu občerstvení.";"Restaurant on site";"Not suitable for diving";"No entrance fee";"Very close";"http://www.nechranice.unas.cz/";"Not suitable for nudists";"";""
"202875";"14.33198";"50.58826";"Jezero Chmelař u Úštěku";"Lake (pond)";"2.8";"https://media.mapotic.com/cdn-cgi/image/metadata=none,width=900,height=900/media/image/geo/2941/202875/a25544b4-e765-4893-8fd3-38ebd5e09b6c.jpg";"swimplaces:199";"";"";"";"";"";"Dvě písečné pláže a kemp.Vstupné je 25 korun,pro děti 10 korun.Občerstvení je tu ve dvou restauracích.Lze si půjčit lodičky i šlapadla.";"Restaurant on site";"Not suitable for diving";"Entrance fee";"Very close";"http://www.mesto-ustek.com/chmelar.php";"Not suitable for nudists";"";""
"202877";"14.4215086";"49.813733";"Lahoz";"Dam";"3.25";"https://media.mapotic.com/cdn-cgi/image/metadata=none,width=900,height=900/media/image/geo/2941/202877/99a1860f-de75-4e84-a0cb-bf7605710c46.jpg";"swimplaces:201";"";"";"";"";"";"Pláž na Slapech.";"No restaurant";"Suitable for diving";"No entrance fee";"Very close";"";"Not suitable for nudists";"";""
"202878";"14.4129392";"49.7556773";"Živohošť";"Dam";"4.6";"https://media.mapotic.com/cdn-cgi/image/metadata=none,width=900,height=900/media/image/geo/2941/202878/05163d15-692d-491b-82eb-8dc013ff091e.jpg";"swimplaces:202";"";"";"";"";"";"Slapy - pláže na obou stranách přehrady.";"Restaurant on site";"Suitable for diving";"No entrance fee";"Very close";"";"Not suitable for nudists";"";""
"202879";"17.3285755";"49.6713605";"Bazén Bělkovice-Lašťany";"Swimming pool";"4.333333333333333";"https://media.mapotic.com/cdn-cgi/image/metadata=none,width=900,height=900/media/image/geo/2941/202879/1bd973fb-670e-4999-a143-fb4ed308bc2b.jpg";"swimplaces:203";"";"";"";"";"";"Venkovní bazén.";"Restaurant on site";"Not suitable for diving";"Entrance fee";"";"";"Not suitable for nudists";"";""
"202880";"17.307842";"49.7511821";"Nádrž Dolní Žleb";"Dam";"2.0";"https://media.mapotic.com/cdn-cgi/image/metadata=none,width=900,height=900/media/image/geo/2941/202880/17b46eaa-3c87-4bfb-b253-216733bbe85b.jpg";"swimplaces:204";"";"";"";"";"";"V létě hojně využívaná rekreanty";"Restaurant on site";"Not suitable for diving";"No entrance fee";"";"";"Not suitable for nudists";"";""
"202881";"17.3160817";"49.7579681";"Koupaliště Dolní Žleb";"Swimming pool";"2.0";"https://media.mapotic.com/cdn-cgi/image/metadata=none,width=900,height=900/media/image/geo/2941/202881/f967a96f-42e0-4bce-b38a-e6c48816a083.jpg";"swimplaces:205";"";"";"";"";"";"Oblíbené místo pro koupání, blízko je kemp.";"Restaurant on site";"Not suitable for diving";"No entrance fee";"";"";"Not suitable for nudists";"";""
"202882";"15.780222";"50.0473536";"Koupaliště Cihelna";"Swimming pool";"4.8";"https://media.mapotic.com/cdn-cgi/image/metadata=none,width=900,height=900/media/image/geo/2941/202882/9dae742f-8a9e-47ee-8adf-cd584262f540.jpg";"swimplaces:206";"";"";"";"";"";"Veřejné koupaliště";"Restaurant on site";"Not suitable for diving";"Entrance fee";"Very close";"";"Not suitable for nudists";"";""
"202883";"14.05806";"49.91553";"Lom Homolák";"Quarry";"";"https://media.mapotic.com/cdn-cgi/image/metadata=none,width=900,height=900/media/image/geo/2941/202883/9dc04ffd-f00e-43d9-9af3-969605413c4c.jpg";"swimplaces:207";"";"";"";"";"";"čistá voda, možnost skákání.";"No restaurant";"Suitable for diving";"No entrance fee";"";"";"Not suitable for nudists";"";""
"202884";"12.863";"49.40267";"Rybník Babylon u Domažlic";"Lake (pond)";"4.0";"https://media.mapotic.com/cdn-cgi/image/metadata=none,width=900,height=900/media/image/geo/2941/202884/04b185d4-c7c7-4459-a606-47e29dde02ed.jpg";"swimplaces:208";"";"";"";"";"";"Písečné pláže,celoročně čistá voda má prý příznivý vliv na klouby.Vstup je zdarma ,občerstvení je na parkovišti";"Restaurant on site";"Not suitable for diving";"No entrance fee";"";"http://www.travelguide.cz/cz/turistika/koupani-a-vodni-sporty/rybnik-babylon-na-domazlicku";"Not suitable for nudists";"";""
"202885";"13.59658";"49.7476";"Koupaliště Rokycany";"Swimming pool";"4.5";"https://media.mapotic.com/cdn-cgi/image/metadata=none,width=900,height=900/media/image/geo/2941/202885/fadaaca1-8758-44b6-bd06-f42dcd6f5a17.jpg";"swimplaces:209";"";"";"";"";"";"Tvoří přírodní nádrž s ostrůvkem a bazén.Travnaté plochy na ležení. Vstup dospělí 50 kč ,děti 30 kč. Je tu občerstvení";"Restaurant on site";"Not suitable for diving";"Entrance fee";"Very close";"http://www.koupaliste-rokycany.wz.cz/";"Not suitable for nudists";"";""
"202886";"13.39032";"49.78457";"Senecký rybník";"Lake (pond)";"4.2";"https://media.mapotic.com/cdn-cgi/image/metadata=none,width=900,height=900/media/image/geo/2941/202886/5a759136-9422-4f47-a318-8f4b526fc918.jpg";"swimplaces:210";"";"";"";"";"";"Tři století starý rybník. Teplá voda,písčité pláže, najdete tu toalety i stánek s občerstvením.";"Restaurant on site";"Not suitable for diving";"No entrance fee";"";"http://cs.wikipedia.org/wiki/Seneck%C3%BD_rybn%C3%ADk";"Not suitable for nudists";"";""
"202887";"16.81127";"49.20908";"Biotop Kovalovice";"Swimming pool";"4.666666666666667";"https://media.mapotic.com/cdn-cgi/image/metadata=none,width=900,height=900/media/image/geo/2941/202887/20ac00d8-dd92-44ef-bd2a-55fc328d5523.jpg";"swimplaces:211";"";"";"";"";"";"Je v údolí Kovalovického potoka. Jsou tu travnaté pláže i soc. zařízení, hřiště na volejbal i občerstvení. Dospělí zaplatí v sezoně 30 korun, děti polovic.";"Restaurant on site";"Not suitable for diving";"Entrance fee";"Very close";"http://www.kovalovice.cz/index.php?oid=605880";"Not suitable for nudists";"";""
"202888";"16.61093";"48.89872";"Pasohlávky u Novomlýnské nádrže";"Dam";"2.3333333333333335";"https://media.mapotic.com/cdn-cgi/image/metadata=none,width=900,height=900/media/image/geo/2941/202888/467d70fa-e9a6-4b4c-ad3b-69ab14b66c36.jpg";"swimplaces:212";"";"";"";"";"";"Přímo pod zříceninou Dívčí hrady. V blízkosti kemp a dvě laguny. Je zde tráva i písek na ležení. Jsou tu stánky s občerstvením i restaurace. Vstup zdarma";"Restaurant on site";"Not suitable for diving";"No entrance fee";"";"http://www.pasohlavky.cz/cze/tic/novoml.htm";"Not suitable for nudists";"";""
"202889";"17.89495";"49.95526";"Stříbrné jezero u Opavy aka Sádrák";"Quarry";"3.0";"https://media.mapotic.com/cdn-cgi/image/metadata=none,width=900,height=900/media/image/geo/2941/202889/4fe97f0b-958a-4942-93dd-041bde0cabc5.jpg";"swimplaces:213";"";"";"";"";"";"Nejpopulárnější jezero na Opavsku. Pozvolný vstup do vody. Jsou tu většinou travnaté ale i písčité plochy. Voda je čistá. Vstup je zdarma a je tu občerstvení s restaurací.

V blízkosti restaurace, volejbal, sprcha, mini pláž.  Voda je tu většinou dobrá, kontrolují ji hygienici.";"Restaurant on site";"Not suitable for diving";"No entrance fee";"Very close";"http://www.opava-city.cz/scripts/detail.php?id=19695/";"Not suitable for nudists";"";""
"202890";"18.34674";"49.92346";"Kališovo jezero v Bohumíně";"Lake (pond)";"4.2";"https://media.mapotic.com/cdn-cgi/image/metadata=none,width=900,height=900/media/image/geo/2941/202890/64e554b5-92a6-4993-950b-e3b54ee4f292.jpg";"swimplaces:214";"";"";"";"";"";"Jsou tu usnadňující betonové panely pro vstup do vody nebo ploché lomové kameny. Je tu volejbalové hřiště nebo občerstvení.";"Restaurant on site";"Not suitable for diving";"No entrance fee";"Very close";"http://www.turistik.cz/cz/kraje/moravskoslezsky-kraj/okres-karvina/bohumin/kalisovo-jezero/";"Not suitable for nudists";"";""
"202891";"15.89242";"50.20598";"Stříbrný rybník u Hradce Králové";"Lake (pond)";"4.0";"https://media.mapotic.com/cdn-cgi/image/metadata=none,width=900,height=900/media/image/geo/2941/202891/fb906bae-b835-446d-8bb7-dbdd31b1233e.jpg";"swimplaces:215";"";"";"";"";"";"5 km od Hradce.Vstup zdarma, na jedné straně je nudistická pláž. Je tu restaurace i občerstvení u stánků. Možnost ubytování v chatkách.";"Restaurant on site";"Not suitable for diving";"No entrance fee";"";"http://www.stribrny-rybnik.cz/";"Not suitable for nudists";"";""
"202894";"15.30724";"50.47282";"JInolické rybníky v Českém ráji";"Lake (pond)";"3.75";"https://media.mapotic.com/cdn-cgi/image/metadata=none,width=900,height=900/media/image/geo/2941/202894/e8cdde45-09a9-47c4-935a-2e3562621db6.jpg";"swimplaces:217";"";"";"";"";"";"Tři rybníky hned vedle sebe v prostředí Prachovských skal. Je zde u oborského rybníka písečná pláž, další rybník se jmenuje Nemeček, třetí se jmenuje Vražda a je přírodní památkou. Vstup je zdarma a v kempu je možnost ubytování. Je zde i občerstvení.";"Restaurant on site";"Not suitable for diving";"No entrance fee";"";"http://www.interregion.cz/turistika/priroda/vodstvo/jinolicke_rybniky/jinolicke_rybniky.htm";"Not suitable for nudists";"";""
"202895";"15.85915";"50.16914";"Biřička u Hradce Králové ";"Lake (pond)";"3.0";"https://media.mapotic.com/cdn-cgi/image/metadata=none,width=900,height=900/media/image/geo/2941/202895/907523cf-fdde-41dc-9187-b069dc2288b5.jpg";"swimplaces:218";"";"";"";"";"";"Nedávno zrekonstruovaný rybník. Teplá voda ,hřiště pro děti, koupání je zdarma a na jedné straně je i restaurace. Pláže jsou tu travnaté i písčité.";"Restaurant on site";"Not suitable for diving";"No entrance fee";"";"http://www.ceskevylety.cz/aktivity.php?kod=447_rybnik-biricka";"Not suitable for nudists";"";""
"202896";"16.09126";"50.158";"Písák u Týniště nad Orlicí";"Sand quarry";"3.3333333333333335";"https://media.mapotic.com/cdn-cgi/image/metadata=none,width=900,height=900/media/image/geo/2941/202896/215c98ac-303d-45cb-ab7b-379a290b3bbb.jpg";"swimplaces:219";"";"";"";"";"";"Zatopená pískovna . Velká písečná pláž a hned vedle nudistická pláž, Sportovní aktivity. Restaurace v kempu a je zde možnost ubytování .Dospělí zaplatí 25 korun, děti 15.";"Restaurant on site";"Not suitable for diving";"Entrance fee";"";"";"Not suitable for nudists";"";""
"202897";"15.8718";"50.54473";"Dolce u Oblanova";"Dam";"1.75";"https://media.mapotic.com/cdn-cgi/image/metadata=none,width=900,height=900/media/image/geo/2941/202897/e30ba7bc-4e05-4e57-931d-b9a8f69aaf9d.jpg";"swimplaces:220";"";"";"";"";"";"Hladina nádrže je 400 metrů nad mořem. Pět km od Trutnova.4 kaskádové rybníky. Je možnost zažít zde  vodní sporty a je tu travnatá pláž. Možnost půjčení šlapadel. Na břehu je restaurace i kemp. Vstup je zde zdarma";"Restaurant on site";"Not suitable for diving";"No entrance fee";"";"";"Not suitable for nudists";"";""
"202898";"17.29955";"49.41567";"Tovačovská jezera";"Lake (pond)";"4.25";"https://media.mapotic.com/cdn-cgi/image/metadata=none,width=900,height=900/media/image/geo/2941/202898/66bbd136-2735-487f-9c1e-271c0f18563b.jpg";"swimplaces:221";"";"";"";"";"";"4 Tovačovská jezera mezi Olomoucí, Přerovem a Prostějovem. Rozloha je cca 330 hektarů. Je tu povoleno koupání na vlastní nebezpečí. Vstup je zdarma";"No restaurant";"Not suitable for diving";"No entrance fee";"";"http://www.tovacov.cz/article/135/cs/Priroda/Jezera";"Not suitable for nudists";"";""
"202899";"15.3866454";"50.5716786";"Koupaliště Koštálov";"Swimming pool";"3.6666666666666665";"https://media.mapotic.com/cdn-cgi/image/metadata=none,width=900,height=900/media/image/geo/2941/202899/ad814332-6e22-4592-b8b1-101a8555646a.jpg";"swimplaces:222";"";"";"";"";"";"Koupaliště.";"Restaurant on site";"Not suitable for diving";"Entrance fee";"";"";"Not suitable for nudists";"";""
"202900";"14.29558";"49.0067";"Rybník Dehtář";"Lake (pond)";"3.875";"https://media.mapotic.com/cdn-cgi/image/metadata=none,width=900,height=900/media/image/geo/2941/202900/22fefe03-ec31-452f-b1f0-8a5bd8441a19.jpg";"swimplaces:223";"";"";"";"";"";"Desátý největší rybník v ČR. ";"Restaurant on site";"Not suitable for diving";"No entrance fee";"Very close";"http://www.jiznicechy.org/cz/index.php?path=ost/dehtar.htm";"Not suitable for nudists";"";""
"202901";"14.06491";"48.70316";"Vodní nádrž Lipno";"Dam";"4.333333333333333";"https://media.mapotic.com/cdn-cgi/image/metadata=none,width=900,height=900/media/image/geo/2941/202901/912707d2-3d4c-4e10-8dfe-f012afa30f0d.jpg";"swimplaces:224";"";"";"";"";"";"Písečné pláže, čistá voda. Spousta menších pláží. Lze vyzkoušet kánoe jachting katamarány... Je zde restaurace i soc. zařízení. Vstup je zdarma.";"Restaurant on site";"Not suitable for diving";"No entrance fee";"Very close";"http://www.lipno.cz/";"Not suitable for nudists";"";""
"202902";"14.3071528";"50.2561614";"Kralupy nad Vltavou";"Swimming pool";"5.0";"https://media.mapotic.com/cdn-cgi/image/metadata=none,width=900,height=900/media/image/geo/2941/202902/ae63f84b-f344-4b84-ba8a-da360f3debb7.jpg";"swimplaces:225";"";"";"";"";"";"Krásné letní koupaliště na okraji města. Nabízí komplex 3 bazénů - 50m bazén, bazén pro neplavce s tobogánem a brouzdaliště.

Dále je k dispozici skokanská věž, hřiště na plážový volejbal, nohejbal, tenis, kuželky a občerstvení.";"Restaurant on site";"Not suitable for diving";"Entrance fee";"Very close";"";"Not suitable for nudists";"";""
"202903";"15.3320142";"49.3141253";"Lom Horní Cerekev";"Quarry";"4.7272727272727275";"https://media.mapotic.com/cdn-cgi/image/metadata=none,width=900,height=900/media/image/geo/2941/202903/image-5449f186-9b09-4ef7-b723-e938a243b740_0URFfmb.jpg";"swimplaces:226";"";"";"";"";"";"Lom Horní Cerekev.";"Restaurant on site";"Suitable for diving";"No entrance fee";"";"";"Not suitable for nudists";"";""
"202904";"15.1942398";"50.0217934";"Vodní svět Kolín";"Swimming pool";"4.5";"https://media.mapotic.com/cdn-cgi/image/metadata=none,width=900,height=900/media/image/geo/2941/202904/2005a7da-d6e5-41a3-8ebe-079251703bf0.jpg";"swimplaces:227";"";"";"";"";"";"Městský aquapark.";"Restaurant on site";"Not suitable for diving";"Entrance fee";"";"";"Not suitable for nudists";"";""
"202905";"14.96337";"48.97851";"Staňkovský rybník";"Lake (pond)";"4.333333333333333";"https://media.mapotic.com/cdn-cgi/image/metadata=none,width=900,height=900/media/image/geo/2941/202905/00c394ed-6a36-4305-9022-c450fbcd7c0a.jpg";"swimplaces:228";"";"";"";"";"";"Měří 7 kilometrů. Pláže jsou travnaté nebo písčité s pozvolným vstupem do vody. Vstup je zdarma. Je tu i restaurace a kemp.";"Restaurant on site";"Not suitable for diving";"No entrance fee";"";"http://cs.wikipedia.org/wiki/Sta%C5%88kovsk%C3%BD_rybn%C3%ADk";"Not suitable for nudists";"";""
"202906";"14.75082";"48.99437";"Rybník Svět";"Lake (pond)";"3.0";"https://media.mapotic.com/cdn-cgi/image/metadata=none,width=900,height=900/media/image/geo/2941/202906/4341e9f6-1867-455d-ad5a-fc6322ce01fe.jpg";"swimplaces:229";"";"";"";"";"";"Tři kilometry od Třeboně. Je tu dřevěná hospoda s terasou. Dospělí platí za vstup 30 korun, děti dvacet.";"Restaurant on site";"Not suitable for diving";"Entrance fee";"";"http://cs.wikipedia.org/wiki/Sv%C4%9Bt_%28rybn%C3%ADk%29";"Not suitable for nudists";"";""
"202907";"14.35999";"49.07649";"Rybník Mydlák";"Lake (pond)";"4.428571428571429";"https://media.mapotic.com/cdn-cgi/image/metadata=none,width=900,height=900/media/image/geo/2941/202907/2979c0d3-709f-4928-83f7-8dbb504eb753.jpg";"swimplaces:230";"";"";"";"";"";"Pět km od Hluboké nad Vltavou. Přírodní koupaliště s travnatou i písečnou pláží, čistou vodou kempem, restaurací a soc.zařízením. Vstup pro dospělé dvacet korun, děti polovic.";"Restaurant on site";"Not suitable for diving";"Entrance fee";"Very close";"http://www.mydlak.cz/";"Not suitable for nudists";"";""
"202908";"14.84597";"50.69944";"Hamr na jezeře";"Lake (pond)";"3.8";"https://media.mapotic.com/cdn-cgi/image/metadata=none,width=900,height=900/media/image/geo/2941/202908/img_1559_xYmD18r.jpg";"swimplaces:231";"";"";"";"";"";"Na území bývalého vojenského prostoru Ralsko. Pláž měří půl km. Vstup je 20 korun.Je tu restaurace s letní zahrádkou a dva kempy. Nově otevřena nudapláž.";"Restaurant on site";"Not suitable for diving";"Entrance fee";"Very close";"http://hamr-na-jezere.ceskehory.cz/";"Suitable for nudists";"";""
"202909";"15.0753";"50.77049";"Přehrada Harcov v Liberci";"Dam";"3.6666666666666665";"https://media.mapotic.com/cdn-cgi/image/metadata=none,width=900,height=900/media/image/geo/2941/202909/45442a19-35cc-4aa2-949b-00f95f97e5f9.jpg";"swimplaces:232";"";"";"";"";"";"Nedaleko liberecké čtvrti. Vstup je zdarma, hřiště  na plážový volejbal a restaurace poblíž.";"Restaurant on site";"Not suitable for diving";"No entrance fee";"Very close";"http://www.pla.cz/planet/public/vodnidila/prehrada_harcov.htm";"Not suitable for nudists";"";""
"202910";"15.19019";"50.51568";"Věžický rybník";"Lake (pond)";"3.0";"https://media.mapotic.com/cdn-cgi/image/metadata=none,width=900,height=900/media/image/geo/2941/202910/b352e97b-570a-4468-9069-44de22eb0434.jpg";"swimplaces:233";"";"";"";"";"";"Neboli ""Věžák"". Je s vodní plochou 9 hektarů.";"No restaurant";"Not suitable for diving";"No entrance fee";"";"http://doprirody.com/10-Vezak/index.htm";"Not suitable for nudists";"";""
"202911";"18.31655";"49.42165";"Přehrada Horní Bečva";"Dam";"3.5";"https://media.mapotic.com/cdn-cgi/image/metadata=none,width=900,height=900/media/image/geo/2941/202911/6e719233-3440-428d-aa51-8fde15894353.jpg";"swimplaces:234";"";"";"";"";"";"Voda čistá. Vstup zdarma ale tu pláž. Občerstvení tu je";"Restaurant on site";"Not suitable for diving";"No entrance fee";"";"http://www.hornibecva.cz/encyklopedie/objekty1.phtml?id=50337";"Not suitable for nudists";"";""
"202912";"17.7797";"49.12435";"Luhačovická přehrada";"Dam";"4.0";"https://media.mapotic.com/cdn-cgi/image/metadata=none,width=900,height=900/media/image/geo/2941/202912/460b5286-5655-4554-b779-0c59ed362a6d.jpg";"swimplaces:235";"";"";"";"";"";"Koupaliště se čistí. ";"Restaurant on site";"Not suitable for diving";"No entrance fee";"";"http://www.luhacovice.cz/3481-prehrada";"Not suitable for nudists";"";""
"202913";"18.02624";"49.42264";"Přehrada Bystřička";"Dam";"4.0";"https://media.mapotic.com/cdn-cgi/image/metadata=none,width=900,height=900/media/image/geo/2941/202913/48988a0c-6b6b-4a0d-a4bd-eb551517c729.jpg";"swimplaces:236";"";"";"";"";"";"Vodní nádrž na Vsetínsku. V okolí jsou chaty. Vstup je zdarma, občerstvení tu je. ";"Restaurant on site";"Not suitable for diving";"No entrance fee";"Very close";"http://cs.wikipedia.org/wiki/Byst%C5%99i%C4%8Dka";"Not suitable for nudists";"";""
"202914";"12.68194";"50.16489";"Koupaliště Michal";"Dam";"3.2857142857142856";"https://media.mapotic.com/cdn-cgi/image/metadata=none,width=900,height=900/media/image/geo/2941/202914/bb22ab27-1f5e-4568-9ada-803e65ca2250.jpg";"swimplaces:237";"";"";"";"";"";"Vodní nádrž nedaleko Sokolova. Zaplatíte 60 korun, děti 40. Na koupališti je čistá voda. Občerstveni je k dispozici.";"Restaurant on site";"Not suitable for diving";"Entrance fee";"Very close";"http://michal-sokolov.cz/";"Not suitable for nudists";"";""
"202915";"12.85554";"50.22801";"Koupaliště Rolava";"Swimming pool";"";"https://media.mapotic.com/cdn-cgi/image/metadata=none,width=900,height=900/media/image/geo/2941/202915/7f486e07-7639-43cb-8edd-72e70394f2a5.jpg";"swimplaces:238";"";"";"";"";"";"Nachází se přímo v městské čtvrti Karlových Varů.";"Restaurant on site";"Not suitable for diving";"Entrance fee";"";"http://www.koupaliste-rolava.cz/cs/";"Not suitable for nudists";"";""
"202916";"12.78163";"50.26538";"Novorolský rybník";"Lake (pond)";"3.3333333333333335";"https://media.mapotic.com/cdn-cgi/image/metadata=none,width=900,height=900/media/image/geo/2941/202916/aefe013b-56fa-4e4e-bfb1-9e4587bd89ac.jpg";"swimplaces:239";"";"";"";"";"";"Písečné břehy a pláže s pozvolným vstupem do vody. Kemp tu je i občerstvení.";"Restaurant on site";"Not suitable for diving";"No entrance fee";"Very close";"";"Not suitable for nudists";"";""
"202917";"15.8419772";"50.2051539";"Koupaliště Flošna";"Swimming pool";"4.833333333333333";"https://media.mapotic.com/cdn-cgi/image/metadata=none,width=900,height=900/media/image/geo/2941/202917/ba03fbd2-6323-4e73-b1d2-d8a1f395a3ab.jpg";"swimplaces:240";"";"";"";"";"";"Koupaliště Flošna Hradec Králové";"Restaurant on site";"Not suitable for diving";"Entrance fee";"Very close";"";"Suitable for nudists";"";""
"202918";"15.8287593";"50.2142174";"Městské lázně";"Swimming pool";"4.5";"https://media.mapotic.com/cdn-cgi/image/metadata=none,width=900,height=900/media/image/geo/2941/202918/53ff5fd8-59e1-401b-b6ec-f64ecea75636.jpg";"swimplaces:241";"";"";"";"";"";"Městské lázně - aquacentrum";"Restaurant on site";"Not suitable for diving";"Entrance fee";"";"";"Not suitable for nudists";"";""
"202919";"15.8305617";"50.2142723";"Plavecký bazén";"Swimming pool";"5.0";"https://media.mapotic.com/cdn-cgi/image/metadata=none,width=900,height=900/media/image/geo/2941/202919/56cb59a6-bc5b-4a3b-b3dc-303d126aec9c.jpg";"swimplaces:242";"";"";"";"";"";"Plavecký bazén 50m";"Restaurant on site";"Not suitable for diving";"Entrance fee";"";"";"Not suitable for nudists";"";""
"202920";"16.56087";"50.08816";"Vodní nádrž Pastviny";"Dam";"4.153846153846154";"https://media.mapotic.com/cdn-cgi/image/metadata=none,width=900,height=900/media/image/geo/2941/202920/5321ce76-e0b6-4eed-9e40-ff6cc6da68f8.jpg";"swimplaces:243";"";"";"";"";"";"Studené koupání. Leží na Divoké Orlici. Je tu kemp na levém břehu, občerstvení tu je.";"Restaurant on site";"Not suitable for diving";"No entrance fee";"Very close";"http://pastviny.ceskehory.cz/";"Not suitable for nudists";"";""
"202921";"14.3186807";"50.0990599";"Koupaliště Divoká Šárka";"Swimming pool";"4.461538461538462";"https://media.mapotic.com/cdn-cgi/image/metadata=none,width=900,height=900/media/image/geo/2941/202921/49933ee3-b608-447a-bde3-846598c03319.jpg";"swimplaces:244";"";"";"";"";"";"Koupaliště U Veselíka";"Restaurant on site";"Not suitable for diving";"Entrance fee";"Very close";"";"Not suitable for nudists";"";""
"202922";"15.64476";"49.82438";"Přehrada Seč";"Dam";"";"https://media.mapotic.com/cdn-cgi/image/metadata=none,width=900,height=900/media/image/geo/2941/202922/5ff6a66e-1ebc-4fb9-a067-f5257f12b5ec.jpg";"swimplaces:245";"";"";"";"";"";"Leží na řece Chrudimce.Pláže jsou travnaté či kamenité. Dno je bahnité. ";"Restaurant on site";"Not suitable for diving";"No entrance fee";"";"http://cs.wikipedia.org/wiki/Vodn%C3%AD_n%C3%A1dr%C5%BE_Se%C4%8D";"Not suitable for nudists";"";""
